,name,station_id,station_location,lat,lng
0,M25 COBHAM MOTORWAY SERVICE AREA,25918,"M25 J9-10, KT11 3DB",51.3042081,-0.4057422
1,ESSO LEATHERHEAD ROAD (HYLANDS GARAGE),9635,"LEATHERHEAD ROAD, KT23 4RQ",51.277581,-0.365992
2,SAINSBURYS COBHAM,880,"PORTSMOUTH ROAD, KT11 1JF",51.3362652,-0.4213981
3,SHELL PORTSMOUTH ROAD (SHELL FAIRMILE),883,"PORTSMOUTH ROAD, KT11 1HU",51.3373617,-0.4047303
4,TESCO LEATHERHEAD,186,"OXSHOTT ROAD, KT22 0EF",51.3121434,-0.3360084
