,name,station_id,station_location,lat,lng
0,M25 COBHAM MOTORWAY SERVICE AREA,25918,"M25 J9-10, KT11 3DB",51.3042081,-0.4057422
1,ESSO LEATHERHEAD ROAD (HYLANDS GARAGE),9635,"LEATHERHEAD ROAD, KT23 4RQ",51.277581,-0.365992
2,SAINSBURYS COBHAM,880,"PORTSMOUTH ROAD, KT11 1JF",51.33358399999999,-0.4222703
3,SHELL PORTSMOUTH ROAD (SHELL FAIRMILE),883,"PORTSMOUTH ROAD, KT11 1HU",51.3373617,-0.4047303
4,TESCO LEATHERHEAD,186,"OXSHOTT ROAD, KT22 0EF",51.3116633,-0.3354788
5,SHELL EAST HORSLEY (SHELL HORSLEY),7027,"GUILDFORD ROAD, KT24 6TA",51.2623541,-0.4309881
6,ESSO KINGSTON ROAD (RSS KINGSCROFT),185,"KINGSTON ROAD, KT22 7SP",51.3019446,-0.3302396
7,ESSO GIVONS GROVE (RSS LEATHERHEAD),188,"GIVONS GROVE, KT22 8LY",51.2825822,-0.3268569
8,BP A3 RIPLEY BYPASS (WISLEY SOUTH SF CONNECT),5174,"A3 RIPLEY BYPASS, GU23 6PU",51.29295,-0.49001
9,BP A3 RIPLEY BYPASS (WISLEY NORTH SF CONNECT),5173,"A3 RIPLEY BYPASS, GU23 6PT",51.29295,-0.49001
10,SHELL BROOKLANDS ROAD (SHELL ST GEORGES),1314,"BROOKLANDS ROAD, KT13 0RP",51.3465862,-0.4630118
11,SHELL ASHTEAD (SHELL ASHTEAD),1395,"THE STREET, KT21 2AD",51.3089711,-0.3011127
12,BP CHESSINGTON (RUSHETT SF CONNECT),1394,"LEATHERHEAD ROAD, KT9 2NH",51.3383913,-0.3192888
13,TESCO BROOKLANDS EXTRA,1312,"BARNES WALLACE DRIVE, KT13 0XF",51.3448276,-0.4752797
14,TEXACO ESHER ROAD (MOLESIDE SERVICE STATION),1317,"ESHER ROAD, KT12 4JZ",51.3681835,-0.396027
15,SHELL PORTSMOUTH ROAD (SHELL WAITROSE BURNT COMMON),3895,"PORTSMOUTH ROAD, GU23 7JY",51.2818512,-0.513389
16,TEXACO HERSHAM ROAD (WALTON HOUSE SERVICE STATION),183,"HERSHAM ROAD, KT12 1RZ",51.3744774,-0.4077839
17,SHELL OATLANDS DRIVE (SHELL WEYBRIDGE),1315,"OATLANDS DRIVE, KT13 9DJ",51.371327,-0.450129
18,TEXACO LANGLEY VALE ROAD (PARK EPSOM DOWNS SERVICE STATION),17578,"LANGLEY VALE ROAD, KT18 6AP",51.3070157,-0.2707185
19,SHELL ESHER (SHELL HINCHLEY WOOD),1398,"KINGSTON BYPASS ROAD, KT10 9TL",51.3735527,-0.3387764
20,BP DORKING ROAD (WOODCOTE SF CONNECT),1397,"DORKING ROAD, KT18 7JW",51.3283747,-0.2707016
21,ASDA WOKING SHEERWATER,26275,"FORSYTH ROAD, GU21 5SB",51.3314895,-0.5309528000000001
22,TEXACO WOKING (MAYBURY HILL SERVICE STATION),7669,"MAYBURY HILL, GU22 8AA",51.3150266,-0.538369
23,SHELL HIGH STREET (SHELL OLD WOKING),6978,"HIGH STREET, GU22 9LN",51.3025629,-0.5461486
24,JET CHESSINGTON (CHESSINGTON SERVICE STATION),1390,"HOOK ROAD, KT9 1PL",51.3706503,-0.306101
25,ESSO SHEPPERTON (MFG SHEPPERTON),179,"WALTON BRIDGE ROAD, TW17 8NE",51.3920161,-0.4354942
26,TEXACO EWELL (PARK WEST EWELL SERVICE STATION),1400,"RUXLEY LANE, KT19 9EY",51.360621,-0.281115
27,SHELL HOOK ROAD (SHELL ACE OF SPADES),1354,"HOOK ROAD, KT6 5AT",51.375456,-0.303433
28,BP EPSOM ROAD (MERROW SF CONNECT),6228,"EPSOM ROAD, GU1 2RB",51.2460584,-0.5301627
29,SAINSBURYS KILN LANE,1869,"KILN LANE, KT17 1EQ",51.3399732,-0.2569319
30,BP LONDON ROAD (MFG PANTILES),862,"LONDON ROAD, GU4 7HR",51.2590605,-0.5446091
31,BP SHEPPERTON (SHEPPERTON SF CONNECT),1209,"HIGH STREET, TW17 9AU",51.3946091,-0.4483409
32,SAINSBURYS BURPHAM,18219,"CLAY LANE, GU4 7JU",51.26171160000001,-0.5465498999999999
33,SHELL PORTSMOUTH ROAD (MFG LONG DITTON),190,"PORTSMOUTH ROAD, KT7 0XF",51.39023150000001,-0.324028
34,ESSO COBHAM (MFG BEECH),881,"STOKE ROAD, KT11 3AS",51.324725,-0.399429
35,BP GUILDFORD ROAD (MFG SHIRLEY),9634,"GUILDFORD ROAD, KT23 4HB",51.26928789999999,-0.3871439
36,ESSO HIGH STREET (MFG OXSHOTT),1321,"HIGH STREET, KT22 0JR",51.3325435,-0.3565636
37,BP KINGSTON ROAD (LEATHERHEAD SF CONNECT),184,"KINGSTON ROAD, KT22 7BL",51.29823320000001,-0.3303851
38,JET WEST BYFLEET (MFG OYSTER LANE),1311,"OYSTER LANE, KT14 7JH",51.34632300000001,-0.4804754000000001
39,BP HERSHAM ROAD (HKS HALFWAY HOUSE),1319,"HERSHAM ROAD, KT12 5NR",51.3733,-0.40589
40,ESSO WEST BYFLEET (WEST BYFLEET EXPRESS),2577,"OLD WOKING ROAD, KT14 6JA",51.3360474,-0.5063563
41,ESSO LONDON ROAD (RSS PIPPBROOK),3049,"LONDON ROAD, RH4 1JA",51.23766089999999,-0.3246096
42,BP DORKING (DORKING SERVICE CENTRE),5527,"REIGATE ROAD, RH4 1SG",51.2344804,-0.3262643
43,ESSO STATION ROAD (MFG DOWNSIDE),9606,"STATION ROAD, GU5 9LQ",51.221117,-0.4498346
44,BP MOLESEY ROAD (MOLESEY SERVICE STATION),1325,"MOLESEY ROAD, KT12 3PW",51.386731,-0.386635
45,JET WOKING (COLLEGE SERVICE STATION),5866,"COLLEGE ROAD, GU22 8BT",51.3226952,-0.5404492
46,TESCO ADDLESTONE EXTRA,5248,"STATION ROAD, KT15 2AS",51.371996,-0.4887124
47,SHELL ADDLESTONE (SHELL ADDLESTONE),1306,"CHERTSEY ROAD, KT15 2ED",51.376677,-0.492526
48,TEXACO TATTENHAM CRESCENT (TATTENHAM CORNER SERVICE STATION),1818,"TATTENHAM CRESCENT, KT18 5QJ",51.3099524,-0.2417202
49,TEXACO SHELVERS HILL (MFG TADWORTH),1819,"SHELVERS HILL, KT20 5PU",51.297194,-0.2378789
50,ASDA BURGH HEATH AUTOMAT,26230,"REIGATE ROAD, KT20 5NZ",51.3093164,-0.222075
51,SHELL BANSTEAD (SHELL WAITROSE BURGH HEATH),1825,"BRIGHTON ROAD, KT20 6AA",51.3062905,-0.2196261
52,ESSO EPSOM (EWELL EXPRESS),1402,"REIGATE ROAD, KT17 1PG",51.34510179999999,-0.2489555
53,SHELL BUCKLAND (SHELL BUCKLAND),4431,"REIGATE ROAD, RH3 7ET",51.2453632,-0.258669
54,TEXACO BRIGHTON ROAD (PARK MOGADOR SERVICE STATION),1821,"BRIGHTON ROAD, KT20 6SU",51.2708424,-0.2117363
55,BP TADWORTH (OAK TREE SF CONNECT),1824,"BRIGHTON ROAD, KT20 6SY",51.2702524,-0.2121036
56,SHELL EPSOM (SHELL ETWELLE),1388,"EWELL BYPASS, KT17 2PU",51.35452309999999,-0.2467904
57,BP LONDON ROAD (EWELL SF CONNECT),1387,"LONDON ROAD, KT17 2PT",51.35448830000001,-0.2448898
58,SHELL TADWORTH (SHELL OXFORD HOUSE),1823,"BRIGHTON ROAD, KT20 6UP",51.2679744,-0.20807
59,SHELL EWELL (KINGSTON ROAD SERVICE STATION),1389,"KINGSTON ROAD, KT19 0SH",51.36427219999999,-0.258091
60,ESSO REIGATE (RSS REIGATE MANOR),19,"REIGATE HILL, RH2 9PD",51.2500815,-0.202269
61,ESSO CHEAM (CHEAM EXPRESS),1386,"MALDEN ROAD, SM3 8HB",51.3610931,-0.2176894
62,BP ST DUNSTANS HILL (ST DUNSTANS SERVICE STATION),1385,"ST DUNSTANS HILL, SM1 2LW",51.3649307,-0.2140643
63,SAINSBURYS NORTH CHEAM,12511,"LONDON ROAD, SM3 9AA",51.3728248,-0.2247965
64,ESSO SUTTON (NORTH CHEAM EXPRESS),1379,"LONDON ROAD, SM3 9BY",51.3755835,-0.2226046
65,TESCO SUTTON CHEAM EXTRA,12514,"OLDFIELDS ROAD, SM1 2NB",51.3750386,-0.2066696
66,BP BANSTEAD (HIGHFIELD SF CONNECT),1827,"BRIGHTON ROAD, SM7 1AZ",51.3171487,-0.2113205
67,ESSO SURBITON (TOLWORTH EXPRESS),1355,"THE BROADWAY, KT6 7DQ",51.3819423,-0.2835743
68,SHELL SUTTON (SHELL SUTTON),1421,"CHEAM ROAD, SM1 2SS",51.361303,-0.2002391
69,BP BRIGHTON ROAD (MFG SUTTON COURT SERVICE STATION),1419,"BRIGHTON ROAD, SM2 5BN",51.35753,-0.19165
70,BP COULSDON (STAR LANE SERVICE CENTRE),1830,"BRIGHTON LANE, CR5 3EE",51.2933225,-0.1541707
71,ESSO BRIGHTON ROAD (RSS HOOLEY),1831,"BRIGHTON ROAD, CR5 3EG",51.2910656,-0.1543499
72,ESSO CHIPSTEAD VALLEY ROAD (MFG COULSDON),1828,"CHIPSTEAD VALLEY ROAD, CR5 3BR",51.3190227,-0.1494101
73,ESSO HIGH STREET (MFG MERSTHAM),18,"HIGH STREET, RH1 3EA",51.2651377,-0.1526195
74,ESSO LONDON ROAD (MFG GATTON POINT),17,"LONDON ROAD, RH1 2JH",51.2538165,-0.1646841
75,SHELL COULSDON (SHELL OLD COULSDON),1833,"COULSDON ROAD, CR5 1EN",51.30097749999999,-0.1174736
76,TESCO PURLEY EXTRA,172,"PURLEY ROAD, CR8 2HA",51.3359059,-0.1174799
77,SHELL PURLEY (MFG FOXLEY),170,"GODSTONE ROAD, CR8 2DB",51.3359543,-0.1138607
78,ESSO CATERHAM (MFG TOWNEND),1832,"TOWNEND, CR3 5UG",51.2888656,-0.0893876
79,TEXACO CATERHAM (ELITE GARAGES CATERHAM),4982,"HIGH STREET, CR3 5UF",51.2859178,-0.08813349999999999
80,BP WHYTELEAFE (GODSTONE ROAD SF CONNECT),1,"GODSTONE ROAD, CR3 0EG",51.3134521,-0.08190789999999999
81,BP REIGATE (WOODHATCH SERVICE STATION),7979,"DOVER GREEN ROAD, RH2 8BS",51.22366,-0.199526
82,SHELL WHYTELEAFE (SHELL WAITROSE WHYTELEAFE),3,"GODSTONE ROAD, CR3 0BB",51.3041753,-0.0771674
83,ESSO PURLEY WAY (PURLEY WAY SERVICE STATION),1110,"PURLEY WAY, CR0 4RE",51.3642362,-0.11856
84,BP CARSHALTON ROAD (CAMBRIDGE ROAD SF CONNECT),5579,"CARSHALTON ROAD, SM5 3QB",51.3628724,-0.1719899
85,BP REDHILL (HILLSIDE SF CONNECT),23,"BRIGHTON ROAD, RH1 6QS",51.235003,-0.1704445
86,SHELL WALLINGTON (SHELL BUDGENS WALLINGTON),176,"MANOR ROAD, SM6 0DW",51.3620348,-0.1509446
87,ESSO PURLEY (MFG HAYLING DOWN),171,"BRIGHTON ROAD, CR8 2BA",51.344925,-0.105614
88,BP GREEN WRYTHE LANE (WRYTHE SF CONNECT),1414,"GREEN WRYTHE LANE, SM5 2DR",51.37216,-0.16685
89,SHELL CARSHALTON (SHELL ST HELIER),1413,"WRYTHE LANE, SM5 2RU",51.3752447,-0.177376
90,UNBRANDED CATERHAM (GRIFFIN),4,"CROYDON ROAD, CR3 6PN",51.29541580000001,-0.0713287
91,ESSO WARLINGHAM (MFG WARLINGHAM),5,"LIMPSFIELD ROAD, CR6 9LA",51.3090523,-0.05475969999999999
92,SHELL LIMPSFIELD ROAD (SHELL SANDERSTEAD),9,"LIMPSFIELD ROAD, CR2 9LE",51.332304,-0.0756216
93,SHELL BRIGHTON ROAD (BRIGHTON ROAD SERVICE STATION),1116,"BRIGHTON ROAD, CR2 6AJ",51.3521124,-0.0987832
94,ESSO BRIGHTON ROAD (MFG WHITGIFT),1115,"BRIGHTON ROAD, CR2 6EE",51.3587022,-0.09748359999999999
95,ESSO SELSDON PARK ROAD (RSS FORESTDALE),1119,"SELSDON PARK ROAD, CR2 8JT",51.350704,-0.039868
96,SHELL KENT GATE WAY (SHELL ADDINGTON),1121,"KENT GATE WAY, CR0 5AR",51.3570679,-0.0334559
97,ESSO PURLEY WAY (MFG WADDON COURT),1109,"PURLEY WAY, CR0 4NX",51.3698175,-0.1171016
98,ESSO OXTED (RSS OLD OXTED),11613,"HIGH STREET, RH8 9LN",51.25312419999999,-0.013626
99,SHELL OXTED (SHELL OXTED),7188,"CHURCH LANE, RH8 9NB",51.2586226,-0.006660399999999999
100,BP BEDDINGTON LANE (BEDDINGTON LANE SERVICE STATION),1114,"BEDDINGTON LANE, CR0 4TJ",51.373148,-0.131839
101,SAINSBURYS PURLEY WAY,1107,"PURLEY WAY, CR0 3JW",51.3758022,-0.1177948
102,ASDA WALLINGTON AUTOMAT,26017,"MARLOWE WAY, CR0 4XS",51.3768482,-0.1301372
103,TEXACO MAIN ROAD (CO-OP APERFIELD COURT),12366,"MAIN ROAD, TN16 3DX",51.31454919999999,0.033829
104,ESSO SHIRLEY ROAD (CROYDON EXPRESS),12513,"SHIRLEY ROAD, CR0 7ER",51.3817431,-0.0630133
105,SHELL EASTBOURNE ROAD (HKS SOUTH GODSTONE),7983,"EASTBOURNE ROAD, RH9 8EZ",51.2192654,-0.0487881
106,SHELL GODSTONE HILL (SHELL GODSTONE),4435,"GODSTONE HILL, RH9 8AJ",51.254002,-0.06677469999999999
107,BP SOUTH CROYDON (ADDINGTON SF CONNECT),1120,"SELSDON PARK ROAD, CR2 8JH",51.3534224,-0.0377094
108,SHELL PARKWAY (SHELL CROYDON),3669,"PARKWAY, CR0 0LA",51.346016,-0.0199154
109,BP MITCHAM ROAD (MITCHAM ROAD SF CONNECT),1111,"MITCHAM ROAD, CR0 3RU",51.3788072,-0.1109563
110,ESSO LOWER ADDISCOMBE ROAD (ADDISCOMBE EXPRESS),1126,"LOWER ADDISCOMBE ROAD, CR0 6AD",51.37953090000001,-0.0836557
111,BP SHIRLEY ROAD (SHIRLEY SF CONNECT),1122,"SHIRLEY ROAD, CR0 8SS",51.3762152,-0.05916950000000001
112,ESSO WICKHAM ROAD (WEST WICKHAM EXPRESS),1864,"WICKHAM ROAD, CR0 8DN",51.3767062,-0.0341851
113,M25 CLACKET LANE CONNECT MOTORWAY SERVICE AREA EASTBOUND,10619,"M25 J5-6, TN16 2ER",51.273321,0.038413
114,SHELL LEAVES GREEN ROAD (TOLLGATE SERVICE STATION),1838,"LEAVES GREEN ROAD, BR2 6DQ",51.3404,0.030618
115,BP LONDON ROAD (WESTERHAM SERVICE STATION),5657,"LONDON ROAD, TN16 2DJ",51.27403,0.07439
116,SHELL CROYDON ROAD (RAVENSBOURNE SERVICE STATION),165,"CROYDON ROAD, BR2 8HU",51.3671173,0.0385219
117,BP CROFTON ROAD (ROSETTA SF CONNECT),164,"CROFTON ROAD, BR6 8NL",51.3671353,0.0555378
118,SHELL HIGH STREET (SHELL GREEN STREET),1089,"HIGH STREET, BR6 6BJ",51.3515577,0.08963489999999999
119,SHELL STATION APPROACH (PARK HAYES SERVICE STATION),1863,"STATION APPROACH, BR2 7EQ",51.37770930000001,0.0108801
120,TEXACO FARNBOROUGH WAY (PARK FARNBOROUGH HILL SERVICE STATION),1087,"FARNBOROUGH WAY, BR6 7ET",51.3584071,0.08464139999999999
121,SHELL HASTINGS ROAD (SHELL BROMLEY),163,"HASTINGS ROAD, BR2 8NJ",51.374545,0.0445857
122,BP HASTINGS ROAD (TUDOR AUTOS),162,"HASTINGS ROAD, BR2 8NA",51.3775183,0.0437722
123,ESSO SEVENOAKS ROAD (RSS CHIMES),1097,"SEVENOAKS ROAD, BR6 7SE",51.3450376,0.1117552
124,TEXACO SEVENOAKS ROAD (PARK ORPINGTON SERVICE STATION),1091,"SEVENOAKS ROAD, BR6 9JW",51.3668092,0.0953579
125,ESSO LINKS WAY (MFG EDEN PARK),168,"LINKS WAY, BR3 3DG",51.3889723,-0.025684
126,ESSO BROMLEY (BROMLEY EXPRESS),2060,"WESTMORELAND ROAD, BR2 0UJ",51.3925385,0.0024386
127,UNBRANDED BROMLEY (W J KING GARAGES BROMLEY),1084,"BROMLEY COMMON, BR2 9RW",51.39230209999999,0.0320133
128,BP COURT ROAD (GODDINGTON SF CONNECT),1096,"COURT ROAD, BR6 9DA",51.36425,0.1109
129,M25 CLACKET LANE CONNECT MOTORWAY SERVICE AREA WESTBOUND,10620,"M25 J5-6, TN16 2ER",51.273321,0.038413
130,SHELL WEST WICKHAM (MFG WEST WICKHAM),169,"HIGH STREET, BR4 0LU",51.377073,-0.022414
131,UNBRANDED SEVENOAKS (KNOCKHOLT SERVICE STATION),1101,"MAIN ROAD, TN14 7JJ",51.3169648,0.1257035
132,SHELL QUEENSWAY (SHELL WAITROSE PETTS WOOD),1095,"QUEENSWAY, BR5 1DH",51.3876405,0.0744726
133,TESCO SEVENOAKS RIVERHEAD,17726,"AISHER WAY, TN13 2QS",51.2886823,0.1669778
134,SHELL LONDON ROAD (SHELL WAITROSE TUBS HILL),4615,"LONDON ROAD, TN13 1DH",51.27781909999999,0.1797762
135,SAINSBURYS SEVENOAKS,17552,"OTFORD ROAD, TN14 5EG",51.2977733,0.1937143
136,SHELL SEAL ROAD (MFG SEVENOAKS),252,"SEAL ROAD, TN14 5AX",51.28875859999999,0.1998496
137,TEXACO HIGH STREET (ORPINGTON POND SERVICE STATION),1092,"HIGH STREET, BR6 0JG",51.3818391,0.1059276
138,ESSO EDENBRIDGE (MFG CHAMPION),3289,"STATION ROAD, TN8 6HL",51.206103,0.061535
139,CO-OP SWANLEY,1070,"HIGH STREET, BR8 8AF",51.3943902,0.1806758
140,TEXACO WEST KINGSDOWN (PARK TWENTY MILE SERVICE STATION),8108,"LONDON ROAD, TN15 6ET",51.3526299,0.2530428
141,BP SWANLEY (SWANLEY SERVICE STATION),1067,"LONDON ROAD, BR8 7HA",51.40287499999999,0.162545
142,UNBRANDED SWANLEY (W J KING GARAGES SWANLEY),1066,"LONDON ROAD, BR8 7QD",51.4052291,0.1594184
143,UNBRANDED DARTFORD (W J KING GARAGES FARNINGHAM ROAD),11821,"DARTFORD ROAD, DA4 0DX",51.3830945,0.2210531
144,BP SWANLEY BYPASS (RSS SWANLEY),1073,"SWANLEY BYPASS, DA14 5JA",51.409724,0.14376
145,TESCO SIDCUP,1064,"EDGINGTON WAY, DA14 5BN",51.4133533,0.1217581
146,BP SEVENOAKS (MFG ST JOHNS HILL),253,"ST JOHNS HILL, TN13 3NY",51.2859556,0.1953913
147,UNBRANDED EDENBRIDGE (FOUR ELMS FILLING STATION),7250,"FOUR ELMS ROAD, TN8 6NL",51.21463,0.09744069999999999
148,ESSO SEVENOAKS WAY (ST PAULS CRAY EXPRESS),1093,"SEVENOAKS WAY, BR5 3AQ",51.400818,0.113521
149,TEXACO CHIPPERFIELD ROAD (MFG ST PAULS CRAY),1094,"CHIPPERFIELD ROAD, BR5 2QR",51.4058074,0.10455
150,GULF EDENBRIDGE (MILL HILL GARAGE),4627,"MILL HILL, TN8 5DQ",51.1876815,0.0681754
151,ESSO SEVENOAKS (MFG BRACKENHILL),3268,"MAIDSTONE ROAD, TN15 8HG",51.290335,0.311264
152,SHELL LONDON ROAD (SHELL PILGRIMS WAY),7245,"LONDON ROAD, TN15 7RR",51.305174,0.3314938
153,UNBRANDED LONDON ROAD (STATE OIL HILDENBOROUGH SERVICE STATION),18185,"LONDON ROAD, TN11 9ND",51.2285878,0.2213741
154,SHELL LONDON ROAD (PARK WROTHAM HEATH SERVICE STATION),12508,"LONDON ROAD, TN15 7RX",51.2979533,0.3430962
155,JET WEST MALLING (MFG OFFHAM),4147,"LONDON ROAD, ME19 5AL",51.2977486,0.3513873
156,BP TONBRIDGE ROAD (HILDEN SF CONNECT),5654,"TONBRIDGE ROAD, TN11 9BJ",51.2092888,0.2570817
157,TEXACO WROTHAM ROAD (CULVERSTONE SERVICE STATION),7540,"WROTHAM ROAD, DA13 0RF",51.3421922,0.3460252
158,SHELL SHIPBOURNE ROAD (MFG SHIPBOURNE ROAD),5653,"SHIPBOURNE ROAD, TN10 3ED",51.2052304,0.2769948
159,BP HADLOW ROAD EAST (THREE ELMS SERVICE STATION),3266,"HADLOW ROAD EAST, TN11 0AB",51.2137,0.31229
160,SHELL LONGFIELD (LONGFIELD FILLING STATION),17457,"STATION ROAD, DA3 7QD",51.3986367,0.3006561
161,SAINSBURYS TONBRIDGE,9247,"ANGEL LANE, TN9 1SF",51.1922649,0.2751031
162,SHELL QUARRY HILL (SHELL TONBRIDGE),4628,"QUARRY HILL, TN9 2SA",51.1879242,0.2680413
163,BP EDGINGTON WAY (BYPASS SF CONNECT),1063,"EDGINGTON WAY, DA14 5AD",51.41464,0.1252
164,MURCO BEXLEY (JOYDENS WOOD SERVICE STATION),1072,"SUMMERHOUSE DRIVE, DA5 2ES",51.4252068,0.1663342
165,PACE TONBRIDGE (FORGE GARAGE),18037,"HIGH STREET, TN11 8BU",51.16946799999999,0.2360661
166,BP WEST MALLING (PARKFOOT GARAGE),2734,"LONDON ROAD, ME19 5AE",51.30003319999999,0.4061951
167,SHELL HAWLEY ROAD (SHELL HAWLEY),3705,"HAWLEY ROAD, DA1 1PU",51.42902549999999,0.2233819
168,BP SUNBURY (KEMPTON PARK SF CONNECT),1331,"STAINES ROAD EAST, TW16 5AW",51.415699,-0.4046111000000001
169,SHELL EAST MOLESEY (MFG PARKHURST),1326,"HURST ROAD, KT8 1SE",51.4078562,-0.369027
170,TESCO SUNBURY EXTRA,1215,"STAINES ROAD WEST, TW16 7BB",51.4179705,-0.425662
171,TEXACO FELTHAM (PARK FELTHAM HILL SERVICE STATION),1236,"SNAKEY LANE, TW13 7ND",51.4306958,-0.4036515
172,ESSO EAST MOLESEY (MFG PALACE),1328,"HAMPTON COURT ROAD, KT8 9BW",51.4075713,-0.3465186
173,SHELL FELTHAM (SHELL SUNBURY),1237,"COUNTRY WAY, TW13 6QN",51.4340866,-0.3883476
174,BP EAST MOLESEY (HAMPTON COURT SF CONNECT),1327,"HAMPTON COURT WAY, KT8 9AE",51.401305,-0.3433674
175,ESSO STAINES ROAD WEST (MFG HERDS GARAGE),1210,"STAINES ROAD WEST, TW15 1RZ",51.4223369,-0.4446801
176,ESSO HOUNSLOW ROAD (MFG JOLLY SAILOR),1426,"HOUNSLOW ROAD, TW13 6QA",51.4353697,-0.3920036
177,BP STAINES ROAD WEST (ASHFORD SF CONNECT),1211,"STAINES ROAD WEST, TW15 1RA",51.42327,-0.44831
178,SAINSBURYS ST CLARES,1427,"UXBRIDGE ROAD, TW12 1AW",51.43509220000001,-0.375823
179,TESCO FELTHAM,17585,"HIGH STREET, TW13 4EX",51.4426273,-0.4132004
180,SHELL STAINES ROAD (SHELL HOSPITAL BRIDGE),1431,"STAINES ROAD, TW2 5JA",51.4393967,-0.3622583
181,GULF FELTHAM (BEDFONT LANE SERVICE STATION),12295,"BEDFONT LANE, TW14 9NJ",51.4500705,-0.4174815
182,ESSO TWICKENHAM (MFG STAINES ROAD),1432,"STAINES ROAD, TW2 5AW",51.4421329,-0.3527403
183,SHELL ASHFORD (SHELL ASHFORD MANOR),1223,"FORDBRIDGE ROAD, TW15 3RX",51.42819799999999,-0.469386
184,BP CHERTSEY (CHERTSEY SERVICE STATION),1216,"BRIDGE ROAD, KT16 8LA",51.3889571,-0.4889738
185,ESSO STAINES ROAD (MFG BEDFONT),1227,"STAINES ROAD, TW14 8PA",51.4513359,-0.4376115
186,ESSO CLOCKHOUSE LANE (CLOCKHOUSE SERVICE STATION),1225,"CLOCKHOUSE LANE, TW14 8RD",51.448216,-0.447778
187,JET FELTHAM (BARBERBRIDGE SERVICE STATION),1230,"STAINES ROAD, TW14 0HW",51.4586652,-0.4024487
188,TESCO FELTHAM DUKES GREEN,17587,"DUKES GREEN AVENUE, TW14 0LT",51.4593269,-0.4133489
189,SHELL RICHMOND ROAD (SHELL KINGSTONIAN),197,"RICHMOND ROAD, KT2 5HD",51.4196673,-0.3016747
190,TESCO ASHFORD MIDDLESEX,12298,"TOWN LANE, TW19 7PZ",51.4447931,-0.475784
191,BP KINGSTON-UPON-THAMES (HAM CROSS SERVICE STATION),1434,"RICHMOND ROAD, KT2 5QU",51.4303655,-0.3073496
192,ESSO STAINES ROAD (MFG HOUNSLOW),1240,"STAINES ROAD, TW4 5BD",51.4644723,-0.3810563
193,SAINSBURYS CHERTSEY,1218,"HERIOT ROAD, KT16 9AG",51.3905002,-0.5041004
194,SHELL RICHMOND ROAD (SHELL OAK LANE),1436,"RICHMOND ROAD, TW1 3AB",51.448488,-0.325308
195,BP FELTHAM (MFG HATTON CROSS),1226,"GREAT SOUTH WEST ROAD, TW14 0PR",51.46569,-0.42381
196,TESCO TWICKENHAM EXTRA,1895,"MOGDEN LANE, TW7 7JY",51.45887640000001,-0.3374519
197,SHELL LONDON ROAD (SHELL KINGSTON HILL),199,"LONDON ROAD, KT2 6PQ",51.4135991,-0.2879855
198,ESSO BEDFONT ROAD (MFG STANWELL),3331,"BEDFONT ROAD, TW19 7LU",51.45777,-0.471303
199,SHELL STAINES (SHELL STAINES),1207,"LONDON ROAD, TW18 4HN",51.4363956,-0.5024843999999999
200,BP NEW MALDEN (MFG ROSE COTTAGE),1358,"KINGSTON ROAD, KT3 3NS",51.401433,-0.267342
201,ESSO ROBIN HOOD WAY (MFG ROBIN HOOD NORTH),1366,"ROBIN HOOD WAY, SW20 0AB",51.4162774,-0.2512578
202,ESSO NEW MALDEN (MFG KINGSTON),1362,"MALDEN WAY, KT3 6HF",51.398911,-0.24348
203,TESCO NEW MALDEN EXTRA,1365,"BEVERLEY WAY, KT3 4PJ",51.40095220000001,-0.2408229
204,SHELL WORPLE ROAD (SHELL PEPYS CORNER),1363,"WORPLE ROAD, SW20 8RE",51.411023,-0.2277438
205,CO-OP ROEHAMPTON VALE,1374,"ROEHAMPTON VALE, SW15 3DX",51.44023199999999,-0.2448935
206,SHELL MORDEN (SHELL SOUTH MERTON),1382,"MARTIN WAY, SM4 4AW",51.4035569,-0.21375
207,BP KINGSTON ROAD (WIMBLEDON CHASE SF CONNECT),205,"KINGSTON ROAD, SW20 8LR",51.4088977,-0.2142926
208,SHELL SHEEN ROAD (SHELL BLACKHORSE),7254,"SHEEN ROAD, TW9 1XD",51.4618786,-0.2891292
209,SHELL ROEHAMPTON LANE (SHELL WAITROSE ROEHAMPTON),1369,"ROEHAMPTON LANE, SW15 4LB",51.4492498,-0.2381862
210,TEXACO UPPER RICHMOND ROAD WEST (EAST SHEEN SERVICE STATION),8079,"UPPER RICHMOND ROAD WEST, SW14 7ED",51.46412309999999,-0.2780626
211,SHELL ISLEWORTH (MFG ISLEWORTH),1423,"TWICKENHAM ROAD, TW7 7ES",51.463951,-0.331657
212,SAINSBURYS RICHMOND,18398,"LOWER RICHMOND ROAD, TW9 4LT",51.4674445,-0.2867569
213,BP LOWER MORTLAKE ROAD (BEACON FILLING STATION),80,"LOWER MORTLAKE ROAD, TW9 2LL",51.46785999999999,-0.28859
214,SHELL LOWER RICHMOND ROAD (SHELL RICHMOND),81,"LOWER RICHMOND ROAD, TW9 4LJ",51.46808499999999,-0.283746
215,ESSO MERTON ROAD (WIMBLEDON EXPRESS),208,"MERTON ROAD, SW19 1EQ",51.41693919999999,-0.1921061
216,ESSO SHEEN LANE (MFG MORTLAKE),8080,"SHEEN LANE, SW14 8LW",51.467265,-0.266858
217,ESSO MITCHAM (MFG WANDLE),1412,"BISHOPSFORD ROAD, SM4 6AP",51.3947081,-0.1739387
218,SAINSBURYS MERTON,1870,"MERANTUN WAY, SW19 1DD",51.4143919,-0.1826232
219,SHELL WESTERN ROAD (SHELL WESTERN ROAD),1179,"WESTERN ROAD, SW19 2QD",51.412538,-0.1782605
220,ESSO HIGH STREET (COLLIERS WOOD EXPRESS),1178,"HIGH STREET, SW19 2BN",51.41869450000001,-0.1779818
221,SHELL PLOUGH LANE (SHELL PLOUGH LANE),4578,"PLOUGH LANE, SW17 0BW",51.429997,-0.1858236
222,ESSO GARRATT LANE (RSS GARRATT LANE),1184,"GARRATT LANE, SW17 0NP",51.43322980000001,-0.1845582
223,SHELL ROWAN ROAD (MFG ROWAN ROAD),7241,"ROWAN ROAD, SW16 5JF",51.4080944,-0.1424275
224,BP MITCHAM ROAD (RSS FERNSIDE),1112,"MITCHAM ROAD, CR0 3AB",51.39093,-0.13386
225,BP TRINITY ROAD (TRINITY SF CONNECT),1156,"TRINITY ROAD, SW17 7HW",51.4373742,-0.1615601
226,SHELL MERTON ROAD (HKS RIVERSDALE),1187,"MERTON ROAD, SW18 5JS",51.44663850000001,-0.1983941
227,ESSO BALHAM HIGH ROAD (BALHAM EXPRESS),12483,"BALHAM HIGH ROAD, SW17 7BQ",51.4387779,-0.1559101
228,UNBRANDED STREATHAM HIGH ROAD (STREATHAM COMMON SERVICE STATION),219,"STREATHAM HIGH ROAD, SW16 3BS",51.4196989,-0.1276945
229,TOTAL LONDON (TOTAL NORBURY),1867,"LONDON ROAD, SW16 4DH",51.40736829999999,-0.1208705
230,TESCO NORBURY EXPRESS,1102,"LONDON ROAD, CR7 7ND",51.4018044,-0.1180574
231,ESSO THORNTON HEATH (NEW PARK EXPRESS),1104,"LONDON ROAD, CR7 6JH",51.3969286,-0.1159123
232,SHELL WEST HILL (MFG PUTNEY),1373,"WEST HILL, SW15 2UE",51.45413199999999,-0.2111382
233,ESSO STERNHOLD AVENUE (MFG STREATHAM),1173,"STERNHOLD AVENUE, SW2 4PB",51.439048,-0.12957
234,SAINSBURYS BALHAM,1157,"NIGHTINGALE LANE, SW12 8SY",51.4519392,-0.152974
235,SHELL BALHAM HILL (SHELL BALHAM),1152,"BALHAM HILL, SW12 9DP",51.450784,-0.14742
236,SAINSBURYS CRYSTAL PALACE,138,"WHITEHORSE LANE, SE25 6XB",51.39877389999999,-0.0879874
237,SHELL WHITEHORSE ROAD (SHELL GLOSTER),137,"WHITEHORSE ROAD, CR0 2LG",51.38748289999999,-0.0965765
238,BP SOUTH NORWOOD HILL (MFG SOUTH NORWOOD),140,"SOUTH NORWOOD HILL, SE25 6BS",51.40083,-0.07725
239,SHELL PORTLAND ROAD (SHELL SOUTH NORWOOD),142,"PORTLAND ROAD, SE25 4UX",51.3963794,-0.069052
240,TEXACO KNIGHTS HILL (PARK KNIGHTS HILL SERVICE STATION),1169,"KNIGHTS HILL, SE27 0QP",51.4232824,-0.1057975
241,BP ANERLEY ROAD (CORNWALL LODGE SERVICE STATION),1171,"ANERLEY ROAD, SE20 8AP",51.4131179,-0.0680021
242,SHELL GIPSY HILL (SHELL GYPSY HILL),1170,"GIPSY HILL, SE19 1PL",51.423936,-0.083314
243,SHELL CRYSTAL PALACE PARADE (SHELL CRYSTAL PALACE),1079,"CRYSTAL PALACE PARADE, SE19 1UN",51.42508300000001,-0.07569
244,JET CROYDON ROAD (FIVE STAR SERVICE STATION),1172,"CROYDON ROAD, SE20 7AE",51.4123435,-0.0540455
245,TESCO ELMERS END,1129,"CROYDON ROAD, BR3 4AA",51.3969811,-0.0489737
246,ESSO LEIGHAM COURT ROAD (MFG STREATHAM),224,"LEIGHAM COURT ROAD, SW16 2RW",51.43274719999999,-0.117064
247,TEXACO NORWOOD ROAD (WEST NORWOOD SERVICE STATION),54,"NORWOOD ROAD, SE27 9AF",51.4357147,-0.1044711
248,SHELL BECKENHAM (SHELL BECKENHAM),148,"BECKENHAM ROAD, BR3 4RH",51.409754,-0.044416
249,BP KIRKDALE (PARK SYDENHAM MOTOR COMPANY),1080,"KIRKDALE, SE26 4QD",51.4278944,-0.0565043
250,BP BECKENHAM (PARK BECKENHAM SERVICE STATION),151,"CROYDON ROAD, BR3 3PR",51.4032117,-0.03588
251,ESSO LONDON ROAD (FORESTHILL EXPRESS),51,"LONDON ROAD, SE23 3PE",51.4406815,-0.0593899
252,TEXACO CROXTED ROAD (CROXTED MOTORS),48,"CROXTED ROAD, SE24 9DG",51.4484978,-0.0982559
253,ESSO A204 (TULSE HILL EXPRESS),56,"A204, SW2 2QB",51.44785479999999,-0.1125835
254,SAINSBURYS SYDENHAM,9188,"BELL GREEN, SE26 4PU",51.4287174,-0.0331371
255,BP STANSTEAD ROAD (MFG FOREST HILL),1082,"STANSTEAD ROAD, SE23 1HP",51.44239839999999,-0.0445573
256,ESSO BROMLEY ROAD (MFG SHORTLANDS),156,"BROMLEY ROAD, BR3 6PG",51.4065509,-0.007520000000000001
257,SHELL BROMLEY HILL (SHELL HILLBROW),157,"BROMLEY HILL, BR1 4JU",51.4183057,0.001848
258,BP WIDMORE ROAD (WIDMORE GREEN SF CONNECT),161,"WIDMORE ROAD, BR1 3AX",51.4068976,0.0281283
259,BP BROMLEY ROAD (DOWNHAM SF CONNECT),1054,"BROMLEY ROAD, BR1 4PJ",51.4263335,-0.0064627
260,SHELL VERDANT LANE (MFG CATFORD),1857,"VERDANT LANE, SE6 1TP",51.4334656,0.0091414
261,ESSO BARING ROAD (GROVE PARK EXPRESS),1055,"BARING ROAD, SE12 0DU",51.4324762,0.0209937
262,ESSO BROWNHILL ROAD (RSS CATFORD),8022,"BROWNHILL ROAD, SE6 1AA",51.4452745,-0.007785
263,BP MOTTINGHAM ROAD (MOTTINGHAM SF CONNECT),1035,"MOTTINGHAM ROAD, SE9 4QN",51.43783999999999,0.04272
264,SHELL SIDCUP ROAD (SHELL MOTTINGHAM),1037,"SIDCUP ROAD, SE9 3AF",51.438966,0.051412
265,SHELL SIDCUP ROAD (SHELL SIDCUP),1039,"SIDCUP ROAD, SE9 3AL",51.4347973,0.0629231
266,SHELL LEWISHAM HIGH STREET (MFG LEWISHAM),17980,"LEWISHAM HIGH STREET, SE13 6NZ",51.45202829999999,-0.016434
267,ESSO SIDCUP ROAD (CLIFTON LEE EXPRESS),217,"SIDCUP ROAD, SE12 8BL",51.4506744,0.0297537
268,TEXACO SIDCUP ROAD (LEE SERVICE STATION),216,"SIDCUP ROAD, SE12 8BL",51.4531374,0.0271842
269,BP LEE HIGH ROAD (LEE SF CONNECT),213,"LEE HIGH ROAD, SE13 5PQ",51.45883,0.00412
270,SHELL FOOTSCRAY ROAD (MFG FOOTSCRAY),1060,"FOOTSCRAY ROAD, SE9 2TD",51.443703,0.0634724
271,BP CHISLEHURST (PERRY STREET SF CONNECT),1038,"PERRY STREET, BR7 6HB",51.41763,0.0919
272,ESSO ELTHAM HIGH STREET (ELTHAM HIGH STREET EXPRESS),1034,"ELTHAM HIGH STREET, SE9 1DH",51.45151809999999,0.0501243
273,UNBRANDED SIDCUP (W J KING GARAGES SIDCUP),1059,"MAIN ROAD, DA14 6PA",51.4270512,0.0958955
274,UNBRANDED BEXLEY (W J KING GARAGES BEXLEY),11857,"STEYNTON AVENUE, DA5 3HP",51.4362355,0.1258024
275,SHELL SIDCUP (SHELL BLENDON),1020,"BLACKFEN ROAD, DA15 9NT",51.4477487,0.1167906
276,BP BEXLEY ROAD (CROWNWOOD SF CONNECT),1025,"BEXLEY ROAD, SE9 2NL",51.4509774,0.0804193
277,SAINSBURYS ELTHAM,1024,"FOOTSCRAY ROAD, SE9 2SA",51.4502227,0.0600399
278,UNBRANDED WELLING (W J KING GARAGES WELLING),1005,"PARK VIEW ROAD, DA16 1SF",51.4606718,0.1197482
279,ESSO BEXLEYHEATH (MFG BROADWAY),1007,"BROADWAY, DA6 8AS",51.457991,0.136395
280,SHELL WELLING (SHELL BUDGENS BELLEGROVE),1021,"BELLEGROVE ROAD, DA16 3QS",51.4635833,0.09933449999999999
281,JET WELL HALL ROAD (MFG WELL HALL),1023,"WELL HALL ROAD, SE9 6SX",51.4587251,0.0495295
282,TEXACO WELLING (ANCHOR SERVICE STATION),1022,"BELLEGROVE ROAD, DA16 3RW",51.466535,0.08392129999999999
283,SAINSBURYS CRAYFORD,1016,"STADIUM WAY, DA1 4HW",51.4501562,0.1777417
284,SHELL BEXLEYHEATH (MFG BEXLEYHEATH),1009,"LONG LANE, DA7 5AH",51.4656748,0.1472153
285,UNBRANDED BEXLEYHEATH (W J KING GARAGES BEXLEYHEATH),1008,"LONG LANE, DA7 5AQ",51.46650160000001,0.1456123
286,ESSO PRINCES ROAD (RSS WINSTON),130,"PRINCES ROAD, DA1 2PZ",51.4406823,0.1966381
287,BP PRINCES ROAD (MFG ELMS),132,"PRINCES ROAD, DA1 1RB",51.43808929999999,0.2344562
288,BP PRINCES ROAD (RSS DARTFORD),127,"PRINCES ROAD, DA1 1YT",51.437628,0.237489
289,ESSO DARTFORD ROAD (DARTFORD EXPRESS),129,"DARTFORD ROAD, DA1 3EN",51.4470102,0.1999736
290,SHELL LONDON ROAD (SHELL INVICTUS),17508,"LONDON ROAD, DA2 6AS",51.4424575,0.2421874
291,SHELL BURNHAM ROAD (SHELL BURNHAM ROAD),125,"BURNHAM ROAD, DA1 5BN",51.454633,0.2080579
292,SHELL ERITH (SHELL ERITH),1014,"NORTHEND ROAD, DA8 3RF",51.4663727,0.1815354
293,ASDA GREENHITHE,25051,"STATION ROAD, DA9 9BT",51.45245749999999,0.2771778
294,ESSO GREENHITHE (RSS GREENHITHE),2241,"LONDON ROAD, DA9 9EJ",51.450024,0.2868888
295,BP ERITH (MFG ERITH),1011,"BEXLEY ROAD, DA8 3EX",51.47278499999999,0.1625922
296,GULF ERITH (BELMONT SERVICE STATION),1012,"BELMONT ROAD, DA8 1LB",51.4726,0.157887
297,MORRISONS ERITH,18002,"JAMES WATT WAY, DA8 2AH",51.479345,0.1831198
298,SAINSBURYS PEPPER HILL,8871,"WINGFIELD BANK, DA11 8JH",51.4302168,0.3327752
299,TEXACO GRAYS (LONDON ROAD SERVICE STATION),1559,"LONDON ROAD, RM20 3JT",51.4763696,0.2711423
300,SHELL STONEBRIDGE ROAD (SHELL NORTHFLEET),3706,"STONEBRIDGE ROAD, DA11 9BJ",51.44923199999999,0.320969
301,ESSO PURFLEET (MFG MEADS),1558,"ARTERIAL ROAD, RM19 1TS",51.4858649,0.2445926
302,TESCO HAYES BULLS BRIDGE EXTRA,1270,"HAYES ROAD, UB2 5LN",51.4989999,-0.4077401
303,BP SOUTHALL (MFG HAYES),1271,"HAYES ROAD, UB2 5LZ",51.4978868,-0.4061416
304,M4 HESTON MOTO MOTORWAY SERVICE AREA WESTBOUND,12283,"M4 J2-3, TW5 9NB",51.4877911,-0.3951634
305,ESSO NORTH HYDE ROAD (SOUTH HAYES EXPRESS),1302,"NORTH HYDE ROAD, UB3 4NE",51.5005587,-0.4215869
306,M4 HESTON MOTO MOTORWAY SERVICE AREA EASTBOUND,6591,"M4 J2-3, TW5 9NB",51.4877911,-0.3951634
307,ASDA HAYES AUTOMAT,26131,"MILLINGTON ROAD, UB3 4AZ",51.5006843,-0.4253558
308,SAINSBURYS HAYES,1291,"COLDHARBOUR LANE, UB3 3EX",51.5163792,-0.4068654
309,SHELL HOUNSLOW (HESTON SERVICE STATION),1253,"HESTON ROAD, TW5 0RG",51.488332,-0.3714519
310,BP BATH ROAD (CRANFORD SF CONNECT),1250,"BATH ROAD, TW5 9BA",51.47590289999999,-0.3959903
311,TESCO YEADING EXTRA,1880,"GLENCOE ROAD, UB4 9SQ",51.52347959999999,-0.3862648
312,TEXACO HOUNSLOW (HOUNSLOW SERVICE STATION),1247,"GREAT WEST ROAD, TW5 9AN",51.47504319999999,-0.3923932
313,ESSO SOUTHALL (MFG SOUTHALL),1266,"UXBRIDGE ROAD, UB1 3DD",51.510254,-0.358938
314,ESSO SHEPISTON LANE (HEATHROW NORTH SERVICE STATION),1305,"SHEPISTON LANE, UB3 1LL",51.4961177,-0.4464341
315,BP GREAT WEST ROAD (RAVENSCROFT SF CONNECT),1244,"GREAT WEST ROAD, TW5 0BT",51.47902,-0.36188
316,BP GREENFORD ROAD (GREENFORD PARK SERVICE STATION),1263,"GREENFORD ROAD, UB6 9BA",51.5214108,-0.3546678
317,ESSO WEST DRAYTON (RSS HARLINGTON),1260,"BATH ROAD, UB3 5AY",51.4814755,-0.4512133
318,SHELL NORTHOLT (SHELL BUDGENS YEADING),1275,"YEADING LANE, UB5 6LN",51.5362065,-0.3919286
319,ESSO GREENFORD (MEAD SERVICE STATION),1267,"RUISLIP ROAD, UB6 9RP",51.5324698,-0.3713116
320,GULF UXBRIDGE (COLHAM GREEN SELF SERVE),4673,"COLHAM GREEN ROAD, UB8 3JY",51.52046379999999,-0.4555485
321,ESSO BOSTON ROAD (MFG STUDLEY GRANGE),698,"BOSTON ROAD, W7 3QJ",51.5042413,-0.3335213
322,SHELL CHURCH ROAD (HANWELL SERVICE STATION),703,"CHURCH ROAD, W7 1DR",51.5092617,-0.3343784
323,CO-OP LEES CORNER,1293,"UXBRIDGE ROAD, UB10 0NZ",51.5303804,-0.4487837
324,MURCO HILLINGDON (MORGANS GARAGE),1294,"PIELD HEATH ROAD, UB8 3NG",51.5257916,-0.4560701999999999
325,GULF WEST DRAYTON (WEST DRAYTON SERVICE STATION),11533,"STATION ROAD, UB7 7ND",51.5063426,-0.4699522
326,SHELL HOLLOWAY LANE (SHELL WEST DRAYTON),1258,"HOLLOWAY LANE, UB7 0AE",51.492413,-0.469795
327,ASDA NORTHOLT WESTERN AVENUE PFS,1277,"TARGET ROUNDABOUT, UB5 5AW",51.5432093,-0.3796879
328,BP HILLINGDON (HILLINGDON SF CONNECT),1278,"LONG LANE, UB10 0LQ",51.5329225,-0.4521579
329,TESCO OSTERLEY EXTRA,1252,"SYON LANE, TW7 5NZ",51.484595,-0.330184
330,SHELL BRENTFORD (SHELL GILLETTE CORNER),1251,"GREAT WEST ROAD, TW7 5NG",51.48343819999999,-0.3280531
331,SHELL GREENFORD (SHELL ROUNDABOUT),1262,"GREENFORD ROAD, UB6 8QQ",51.5351247,-0.346529
332,BP MANDEVILLE ROAD (MANDEVILLE SERVICE STATION),1276,"MANDEVILLE ROAD, UB5 5BH",51.54599,-0.37136
333,JET WEST DRAYTON (MFG MILL ROAD),1297,"MILL ROAD, UB7 7EQ",51.5017301,-0.4793957
334,BP WESTERN AVENUE (GREENFORD ROUNDABOUT FILLING STATION),1332,"WESTERN AVENUE, UB6 8EU",51.5361615,-0.3448153
335,SHELL HIGH STREET (SHELL YIEWSLEY),1299,"HIGH STREET, UB7 7QP",51.516444,-0.4766
336,SHELL COLNBROOK BYPASS (SHELL HEATHROW),12324,"COLNBROOK BYPASS, UB7 0HB",51.481913,-0.480252
337,SHELL RUISLIP (SHELL NORTHOLT),632,"WEST END ROAD, HA4 6QQ",51.5551213,-0.4053595
338,SAINSBURYS SOUTH RUISLIP,18334,"LONG DRIVE, HA4 0HQ",51.55604,-0.3929484
339,BP WESTERN AVENUE (PERIVALE SF CONNECT),1879,"WESTERN AVENUE, UB6 8TF",51.533213,-0.325392
340,ESSO HIGH ROAD (COWLEY EXPRESS),1300,"HIGH ROAD, UB8 2HS",51.5258933,-0.4824136999999999
341,ESSO SOUTH EALING ROAD (TRIANGLE SERVICE STATION),700,"SOUTH EALING ROAD, W5 4QT",51.50216649999999,-0.3065013
342,ASDA SOUTH RUISLIP AUTOMAT,26263,"OLD DAIRY LANE, HA4 0EF",51.559069,-0.400181
343,BP GUNNERSBURY AVENUE (GUNNERSBURY PARK SF CONNECT),76,"GUNNERSBURY AVENUE, W5 4LR",51.5011163,-0.2859169
344,ESSO GREAT WEST ROAD (RSS THE DOME),77,"GREAT WEST ROAD, TW8 9AD",51.4915114,-0.3044173
345,JET BRENTFORD (BRENTFORD SERVICE STATION),79,"HIGH STREET, TW8 0DU",51.4878984,-0.2925745
346,ESSO GREAT WEST ROAD (RSS CHISWICK FLYOVER),89,"GREAT WEST ROAD, W4 5QJ",51.4915691,-0.2833596
347,ESSO UXBRIDGE ROAD (ACTON EXPRESS),17619,"UXBRIDGE ROAD, W3 9RH",51.508365,-0.281438
348,SHELL HANGER LANE (SHELL WAITROSE EALING),66,"HANGER LANE, W5 3HJ",51.5165556,-0.2910575
349,BP SOUTH PARADE (MFG CHISWICK),97,"SOUTH PARADE, W4 5LG",51.49626199999999,-0.263516
350,BP HORN LANE (HORN LANE FILLING STATION),68,"HORN LANE, W3 6PH",51.51491,-0.26851
351,SHELL THE VALE (MFG ACTON PARK),73,"THE VALE, W3 7QS",51.506242,-0.260112
352,SHELL WESTERN AVENUE (SHELL PARK ROYAL),1721,"WESTERN AVENUE, W3 0PA",51.52632639999999,-0.2804748
353,BP WESTERN AVENUE (WESTERN AVENUE SF CONNECT),1722,"WESTERN AVENUE, W3 0TE",51.52693379999999,-0.2780782
354,SHELL THE VALE (MFG ACTON VALE),72,"THE VALE, W3 7RS",51.5068687,-0.2492259
355,ASDA PARK ROYAL AUTOMAT,1877,"PARK ROYAL ROAD, NW10 7LW",51.5278892,-0.2683262
356,SHELL GOLDHAWK ROAD (SHELL HAMMERSMITH),96,"GOLDHAWK ROAD, W6 0XF",51.4958547,-0.2447167
357,ESSO EALING ROAD (ALPERTON SERVICE STATION),1333,"EALING ROAD, HA0 1JQ",51.53519370000001,-0.2973163
358,TESCO HOOVER BUILDING,1336,"WESTERN AVENUE, UB6 8DW",51.5338447,-0.3187539
359,SAINSBURYS ALPERTON,1334,"EALING ROAD, HA0 1PF",51.5382411,-0.2999421
360,BP GREAT WEST ROAD (MFG CROMWELL ROAD NORTH),87,"GREAT WEST ROAD, W6 9TQ",51.49155409999999,-0.2385821
361,BP GREAT WEST ROAD (CROMWELL ROAD SF SOUTH CONNECT),86,"GREAT WEST ROAD, W6 9TQ",51.49155409999999,-0.2385821
362,ESSO ABBEY ROAD (PARK ROYAL SERVICE STATION),1878,"ABBEY ROAD, NW10 7TS",51.5383479,-0.277335
363,ESSO CASTELNAU (BARNES EXPRESS),85,"CASTELNAU, SW13 9EW",51.48473019999999,-0.2345005
364,TEXACO SCRUBS LANE (SCRUBS LANE SERVICE STATION),1707,"SCRUBS LANE, W10 6AH",51.5207347,-0.228727
365,BP SHEPHERDS BUSH GREEN (BUSH CENTRE SF CONNECT),1893,"SHEPHERDS BUSH GREEN, W12 8PS",51.50346,-0.2214
366,TEXACO HARROW ROAD (COLLEGE PARK SERVICE STATION),1703,"HARROW ROAD, NW10 5ND",51.53220049999999,-0.2386136
367,UNBRANDED CHURCH ROAD (CRAVEN PARK SERVICE STATION),1698,"CHURCH ROAD, NW10 8SR",51.5459123,-0.2516676
368,BP HAMERSMITH FLYOVER (FLYOVER SF CONNECT),1710,"HAMERSMITH FLYOVER, W6 8BJ",51.4905531,-0.2178171
369,SHELL FULHAM PALACE ROAD (SHELL FULHAM CROSS),1712,"FULHAM PALACE ROAD, W6 9NT",51.4837697,-0.2198371
370,UNBRANDED HOLLAND ROAD (HOLLAND ROAD SERVICE STATION),306,"HOLLAND ROAD, W14 8BA",51.5006114,-0.2112697
371,SHELL BAYSWATER ROAD (SHELL WAITROSE BAYSWATER),1530,"BAYSWATER ROAD, W2 3HT",51.5106829,-0.1840065
372,SHELL OLD BROMPTON ROAD (SHELL OLD BROMPTON),307,"OLD BROMPTON ROAD, SW7 3RA",51.4917558,-0.1793723
373,UNBRANDED ST MARKS ROAD (ANDREWS GARAGE),1717,"ST MARKS ROAD, W11 1RE",51.5165192,-0.2129284
374,ESSO FULHAM ROAD (CHELSEA EXPRESS),310,"FULHAM ROAD, SW10 9UZ",51.4826357,-0.1859549
375,SHELL HARROW ROAD (SHELL WESTBOURNE),1720,"HARROW ROAD, W2 5EH",51.5203292,-0.1914117
376,GULF SLOANE AVENUE (CHELSEA CLOISTERS SERVICE STATION),301,"SLOANE AVENUE, SW3 3DL",51.4924347,-0.1665997
377,SHELL ASHBURNHAM ROAD (SHELL CHELSEA),309,"ASHBURNHAM ROAD, SW10 0NY",51.4803122,-0.1822919
378,ESSO KINGS ROAD (FULHAM EXPRESS),298,"KINGS ROAD, SW6 2EJ",51.478001,-0.189224
379,SAINSBURYS LADBROKE GROVE,1718,"CANAL WAY, W10 5AA",51.5261769,-0.2177619
380,ESSO EDGWARE ROAD (MFG THE VALE),1527,"EDGWARE ROAD, W2 1BT",51.522803,-0.17452
381,SHELL FULHAM ROAD (SHELL EV FULHAM),1891,"FULHAM ROAD, SW6 5HY",51.4725109,-0.2090047
382,ESSO PARK LANE (MFG PARK LANE),1164,"PARK LANE, W1K 7HB",51.5088654,-0.154283
383,ESSO SUTHERLAND AVENUE (MAIDA VALE EXPRESS),1529,"SUTHERLAND AVENUE, W9 1UP",51.5282316,-0.1821746
384,SHELL EBURY STREET (SHELL VICTORIA),1160,"EBURY STREET, SW1W 9QJ",51.49254999999999,-0.150649
385,SHELL MARYLEBONE ROAD (MFG SPAR DORSET HOUSE),1523,"MARYLEBONE ROAD, NW1 5AR",51.522398,-0.1592091
386,SAINSBURYS LOWER RICHMOND ROAD,1371,"LOWER RICHMOND ROAD, SW15 1EU",51.4673814,-0.2206653
387,BP WELLINGTON ROAD (MFG LORDS),490,"WELLINGTON ROAD, NW8 9SQ",51.53229169999999,-0.1721082
388,SHELL YORK ROAD (SHELL SAVOY),290,"YORK ROAD, SW18 1TP",51.464293,-0.182405
389,SHELL QUEENSTOWN ROAD (SHELL WAITROSE BATTERSEA),1147,"QUEENSTOWN ROAD, SW8 4LT",51.4784525,-0.1483283
390,BP SWANDON WAY (WANDSWORTH SF CONNECT),296,"SWANDON WAY, SW18 1EW",51.4619629,-0.1885525
391,BP VAUXHALL BRIDGE ROAD (MFG VAUXHALL BRIDGE),12516,"VAUXHALL BRIDGE ROAD, SW1V 2RE",51.4925451,-0.1371082
392,SHELL GROSVENOR ROAD (RSS EMBANKMENT),1158,"GROSVENOR ROAD, SW1V 3JY",51.48525369999999,-0.1363485
393,SHELL KILBURN HIGH ROAD (SHELL KILBURN),1693,"KILBURN HIGH ROAD, NW6 7QE",51.54650170000001,-0.2039567
394,BP CLAPHAM COMMON NORTH SIDE (MFG CLAPHAM COMMON),1150,"CLAPHAM COMMON NORTH SIDE, SW4 9SH",51.4614673,-0.1573931
395,TEXACO WANDSWORTH ROAD (CO-OP CLAPHAM),1146,"WANDSWORTH ROAD, SW8 3LT",51.4689248,-0.1428406
396,BP FINCHLEY ROAD (HAMPSTEAD SERVICE STATION),494,"FINCHLEY ROAD, NW3 5EY",51.54571749999999,-0.1776905
397,SHELL WILLESDEN LANE (SHELL WILLESDEN),1692,"WILLESDEN LANE, NW2 5HS",51.5471263,-0.2223913
398,TEXACO ALBERT EMBANKMENT (EMBANKMENT SERVICE STATION),8020,"ALBERT EMBANKMENT, SE1 7TL",51.4891228,-0.122769
399,MORRISONS CAMDEN,714,"CHALK FARM ROAD, NW1 8AA",51.542959,-0.1495846
400,SHELL SOUTHWARK BRIDGE ROAD (SHELL SOUTHWARK BRIDGE),1135,"SOUTHWARK BRIDGE ROAD, SE1 0AX",51.5033785,-0.09551899999999999
401,ESSO NEW KENT ROAD (MFG NEWINGTON SPAR),1139,"NEW KENT ROAD, SE1 4AG",51.49439779999999,-0.0907538
402,TEXACO KENNINGTON ROAD (KENNINGTON SERVICE STATION),1140,"KENNINGTON ROAD, SE11 6PR",51.490827,-0.111332
403,APPLEGREEN KENNINGTON LANE (APPLEGREEN KENNINGTON),1141,"KENNINGTON LANE, SE11 5RD",51.4869995,-0.1158962
404,TESCO SOUTHWARK,25,"DUNTON ROAD, SE1 5HG",51.4899806,-0.0760938
405,APPLEGREEN CAMBERWELL ROAD (APPLEGREEN CAMBERWELL),41,"CAMBERWELL ROAD, SE5 0EG",51.4810917,-0.094691
406,TEXACO THE HIGHWAY (ST KATHERINES SERVICE STATION),1521,"THE HIGHWAY, E1W 2BN",51.5094444,-0.0636111
407,ASDA OLD KENT ROAD AUTOMAT,26,"OLD KENT ROAD, SE1 5AG",51.4844027,-0.0697671
408,BP THE HIGHWAY (TOWER CONNECT),1465,"THE HIGHWAY, E1W 2BU",51.5091556,-0.0609612
409,SHELL SOUTHWARK PARK ROAD (SHELL SOUTHWARK PARK),1131,"SOUTHWARK PARK ROAD, SE16 2JN",51.4925745,-0.0597625
410,SHELL OLD STREET (SHELL OLD STREET),12529,"OLD STREET, EC1V 9BP",51.52531630000001,-0.08897519999999999
411,SHELL WHITECHAPEL ROAD (SHELL WHITECHAPEL),1489,"WHITECHAPEL ROAD, E1 1DT",51.5180181,-0.06536929999999999
412,TEXACO CITY ROAD (CITY ROAD SERVICE STATION),1871,"CITY ROAD, EC1V 1JQ",51.5293198,-0.0947239
413,TESCO SURREY QUAYS EXTRA,1043,"REDRIFF ROAD, SE16 7LL",51.494544,-0.04603860000000001
414,ASDA BETHNAL GREEN VALLANCE ROAD PFS,1460,"VALLANCE ROAD, E1 5BW",51.52225920000001,-0.0640418
415,BP OLD KENT ROAD (MFG HOPFIELDS),29,"OLD KENT ROAD, SE15 1NZ",51.48066619999999,-0.05916979999999999
416,ESSO BRIXTON ROAD (STOCKWELL EXPRESS),57,"BRIXTON ROAD, SW9 7AA",51.4685707,-0.1128716
417,MORRISONS PECKHAM,17622,"HANOVER PARK, SE15 5HS",51.472642,-0.066969
418,JET HINTON ROAD (HERNE HILL SERVICE STATION),64,"HINTON ROAD, SE24 0HJ",51.4641615,-0.1013717
419,SHELL NEW CROSS ROAD (SOUTHWARK SERVICE STATION),31,"NEW CROSS ROAD, SE14 5BE",51.4780884,-0.0533586
420,TEXACO CALEDONIAN ROAD (CO-OP CALEDONIAN),593,"CALEDONIAN ROAD, N1 0SL",51.5379061,-0.1169423
421,BP CAMBRIDGE HEATH ROAD (MUSEUM SERVICE STATION),1457,"CAMBRIDGE HEATH ROAD, E2 9LH",51.5290719,-0.05608089999999999
422,SHELL UPPER STREET (SHELL UPPER STREET),603,"UPPER STREET, N1 2TZ",51.5407105,-0.1023826
423,SHELL EVELYN STREET (SHELL DEPTFORD),1045,"EVELYN STREET, SE8 5RJ",51.485713,-0.034595
424,BP GROVE VALE (GROVE VALE FILLING STATION),43,"GROVE VALE, SE22 8EN",51.461333,-0.0757108
425,ESSO EAST DULWICH ROAD (MFG DULWICH),46,"EAST DULWICH ROAD, SE22 9BD",51.4619295,-0.06887309999999999
426,SAINSBURYS NEW CROSS GATE,12527,"NEW CROSS ROAD, SE14 5UL",51.4752192,-0.041089
427,TEXACO MARE STREET (MARE STREET SERVICE STATION),1453,"MARE STREET, E8 3SG",51.538542,-0.05658100000000001
428,TEXACO GROVE ROAD (GROVE ROAD FILLING STATION),1467,"GROVE ROAD, E3 4PE",51.5271907,-0.0368961
429,SHELL YORK WAY (SHELL CAMDEN TOWN),459,"YORK WAY, N7 9QE",51.5463912,-0.1269763
430,ESSO CAMDEN ROAD (CAMDEN EXPRESS),457,"CAMDEN ROAD, NW1 9HG",51.5454374,-0.1333988
431,SHELL HOLLOWAY ROAD (SHELL HOLLOWAY),1188,"HOLLOWAY ROAD, N7 8JE",51.550253,-0.1086741
432,TEXACO CREEK ROAD (PARK DEPTFORD SERVICE STATION),1046,"CREEK ROAD, SE8 3BU",51.4815152,-0.018508
433,ASDA DOCKLANDS AUTOMAT,8905,"EAST FERRY ROAD, E14 3BT",51.4948777,-0.013584
434,TEXACO COTTON STREET (COTTON STREET SERVICE STATION),1496,"COTTON STREET, E14 0EL",51.5106133,-0.0107673
435,SAINSBURYS CHARLTON RIVERSIDE,18410,"BUGSBYS WAY, SE10 0QJ",51.4879397,0.0165813
436,BP TRAFALGAR ROAD (TRAFALGAR SF CONNECT),1028,"TRAFALGAR ROAD, SE10 9TS",51.4836696,-0.0006879999999999999
437,SHELL NORTH WOOLWICH ROAD (PARK SILVERTOWN),1534,"NORTH WOOLWICH ROAD, E16 2BB",51.5025807,0.0258894
438,ASDA CHARLTON,15846,"BUGSBYS WAY, SE7 7SR",51.4891847,0.0226714
439,BP WOOLWICH ROAD (MFG HEXAGON),996,"WOOLWICH ROAD, SE7 7AL",51.4872837,0.0277081
440,BP NEWHAM WAY (NEWHAM WAY CONNECT),1520,"NEWHAM WAY, E16 1QX",51.51702,0.02339
441,TESCO BROMLEY BY BOW,1494,"BLACKWALL TUNNEL NORTHERN APPROACH, E3 3DA",51.5266315,-0.0097847
442,ESSO SHOOTERS HILL ROAD (MFG BLACKHEATH),1031,"SHOOTERS HILL ROAD, SE3 7HS",51.4740486,0.0169863
443,SHELL SHOOTERS HILL ROAD (SHELL SHOOTERS HILL),1032,"SHOOTERS HILL ROAD, SE3 8UQ",51.4755422,0.0280034
444,TEXACO BOW ROAD (CO-OP BOW ROAD),1491,"BOW ROAD, E3 2AN",51.5279715,-0.0221082
445,ESSO BARKING ROAD (MFG WHITEFIELDS),1516,"BARKING ROAD, E13 9JY",51.5272331,0.0317711
446,TESCO LEWISHAM,1049,"LEWISHAM ROAD, SE13 7PY",51.4663797,-0.012308
447,BP KIDBROOKE PARK ROAD (RSS BLACKHEATH),1854,"KIDBROOKE PARK ROAD, SE3 0DZ",51.46938,0.02463
448,ESSO LOAMPIT HILL (LOAMPIT VALE EXPRESS),1040,"LOAMPIT HILL, SE13 7TG",51.4650612,-0.0181302
449,SHELL WICK LANE (SHELL OLD FORD),1492,"WICK LANE, E3 2TB",51.53457969999999,-0.021605
450,UNBRANDED ARTILLERY PLACE (W J KING GARAGES WOOLWICH),136,"ARTILLERY PLACE, SE18 4AB",51.4879137,0.06017249999999999
451,ASDA BECKTON AUTOMAT,1536,"FROBISHER ROAD, E6 5LX",51.514727,0.0579989
452,TEXACO HIGH STREET SOUTH (EAST HAM SERVICE STATION),1538,"HIGH STREET SOUTH, E6 3RR",51.52420069999999,0.0570665
453,ESSO BROCKLEY ROAD (MFG FOXBERRY),1860,"BROCKLEY ROAD, SE4 2SU",51.4609785,-0.0350141
454,SAINSBURYS BECKTON,1537,"CLAPS GATE LANE, E6 6JF",51.5215982,0.06922339999999999
455,GULF ROMFORD ROAD (MAYESBROOK MOTORS),1512,"ROMFORD ROAD, E7 8BS",51.5466109,0.02928699999999999
456,UNBRANDED LEYTONSTONE ROAD (STATE OIL LEYTONSTONE SERVICE STATION),1499,"LEYTONSTONE ROAD, E15 1LN",51.5509152,0.0053925
457,TESCO GALLIONS REACH EXTRA,25251,"ARMADA WAY, E6 7FB",51.5175272,0.0755511
458,ESSO PLUMSTEAD COMMON ROAD (MFG PLUMSTEAD COMMON),135,"PLUMSTEAD COMMON ROAD, SE18 2UL",51.480858,0.0794034
459,SHELL HIGH STREET NORTH (PARK HIGH STREET NORTH SERVICE STATION),1544,"HIGH STREET NORTH, E12 6TL",51.5461385,0.0486444
460,MORRISONS THAMESMEAD,17542,"JOYCE DAWSON WAY, SE28 8RA",51.506424,0.104741
461,TEXACO PLUMSTEAD HIGH STREET (LAKEDALE SERVICE STATION),999,"PLUMSTEAD HIGH STREET, SE18 1JH",51.4866988,0.09512649999999999
462,JET BOSTALL HILL (THAMESMEAD GARAGE),1000,"BOSTALL HILL, SE2 0RB",51.48522579999999,0.1047204
463,BP HARROW MANOR WAY (MFG THAMESMEAD),1003,"HARROW MANOR WAY, SE2 9SA",51.4929289,0.1215201
464,BP BARKING (RSS RIPPLE),1553,"ALFREDS WAY, IG11 0AT",51.52926,0.08603999999999999
465,SHELL RIPPLE ROAD (SHELL RIPPLE ROAD),1552,"RIPPLE ROAD, IG11 9PG",51.5329765,0.107323
466,ESSO BARKING (BARKING EXPRESS),1551,"RIPPLE ROAD, IG11 9PG",51.53332899999999,0.105893
467,TEXACO BARKING (BARKING SERVICE STATION),1564,"RIPPLE ROAD, IG11 0TT",51.5313265,0.1238995
468,TESCO BARKING,1547,"HIGHBRIDGE ROAD, IG11 7BS",51.536351,0.070907
469,ASDA DAGENHAM,1563,"MERRIELANDS CRESCENT, RM9 6SJ",51.5301114,0.1427795
470,SHELL LONDON ROAD (SHELL BARKING),1548,"LONDON ROAD, IG11 8BU",51.537647,0.071508
471,SHELL NEW ROAD (PARK FORD SERVICE STATION),1554,"NEW ROAD, RM10 9NE",-25.9793205,28.1208746
472,ESSO ILFORD LANE (MFG LOXFORD),314,"ILFORD LANE, IG1 2PG",51.5445673,0.0779711
473,ESSO RAINHAM (MFG BEAM),1555,"NEW ROAD, RM13 8DP",51.52612999999999,0.167225
474,SHELL ILFORD LANE (ILFORD LANE SERVICE STATION),312,"ILFORD LANE, IG1 2LW",51.5512263,0.0741047
475,ESSO DAGENHAM (MFG RAINHAM ROAD),1570,"RAINHAM ROAD SOUTH, RM10 8YT",51.5391875,0.1659319
476,SHELL RAINHAM ROAD SOUTH (PARK CORONET SERVICE STATION),1569,"RAINHAM ROAD SOUTH, RM10 8UX",51.54077969999999,0.1651417
477,TESCO RAINHAM ESSEX EXTRA,1560,"BRIDGE ROAD, RM13 9YZ",51.5200061,0.1907802
478,ESSO GREEN LANE (ILFORD EXPRESS),316,"GREEN LANE, IG1 1XR",51.5600533,0.09348909999999999
479,SHELL ROMFORD ROAD (PARK MANOR SERVICE STATION),311,"ROMFORD ROAD, E12 5JT",51.5541484,0.0568577
480,ESSO PURFLEET ROAD (MFG AVELEY SPAR),10672,"PURFLEET ROAD, RM15 4DJ",51.4994147,0.2514182
481,M25 THURROCK MFG MOTORWAY SERVICE AREA,3055,"M25 J30, RM16 3BG",51.4910965,0.2714377
482,TESCO LAKESIDE EXTRA,9163,"CYGNET VIEW, RM20 1TX",51.4874769,0.2741193
483,COSTCO WEST THURROCK (COSTCO THURROCK AUTOMAT),26217,"WEST THURROCK WAY, RM20 3WY",51.4830492,0.2820632
484,BP DAGENHAM (RAINHAM ROAD SERVICE STATION),1576,"RAINHAM ROAD SOUTH, RM10 7UU",51.54977,0.16249
485,ESSO HORNCHURCH (MFG HORNCHURCH),1578,"UPPER RAINHAM ROAD, RM12 4BZ",51.5569606,0.1885735
486,TEXACO OXLOW LANE (PARK OXLOW LANE SERVICE STATION),1575,"OXLOW LANE, RM10 7YX",51.5508822,0.1556841
487,SAINSBURYS CHAFFORD HUNDRED,9164,"BURGHLEY ROAD, RM16 6YJ",51.4910791,0.2937569
488,SHELL CORBETS TEY ROAD (PARK TEY SERVICE STATION),1580,"CORBETS TEY ROAD, RM14 2AP",51.55274499999999,0.247111
489,SHELL ST MARYS LANE (SHELL UPMINSTER),1579,"ST MARYS LANE, RM14 3BS",51.5560134,0.2511523
490,BP HORNCHURCH ROAD (HARROW SERVICE STATION),265,"HORNCHURCH ROAD, RM11 1DP",51.5650342,0.2037489
491,ESSO NORTH ROAD (SOUTH OCKENDON EXPRESS),3054,"NORTH ROAD, RM15 6QA",51.5245097,0.2976917
492,TESCO ROMFORD EXTRA,1572,"HORNCHURCH ROAD, RM11 1PY",51.5657399,0.1918852
493,BP ROMFORD (MFG COOPERS ARMS),473,"RUSH GREEN ROAD, RM7 0QA",51.56578,0.17674
494,SHELL WOOD LANE (SHELL DAGENHAM),272,"WOOD LANE, RM10 7RP",51.560415,0.1483637
495,TEXACO HORNCHURCH (CO-OP HORNCHURCH),269,"BILLET LANE, RM11 1XA",51.5677348,0.2196665
496,TEXACO WHALEBONE LANE SOUTH (TRIPTONS SERVICE STATION),274,"WHALEBONE LANE SOUTH, RM8 1AJ",51.5635978,0.1462535
497,SHELL PINNER (SHELL PINNER),606,"PINNER GREEN, HA5 2AF",51.5978803,-0.3938609
498,ESSO JOEL STREET (NORTHWOOD EXPRESS),1644,"JOEL STREET, HA5 2PA",51.5991928,-0.4094801
499,ESSO EASTCOTE HIGH ROAD (MFG PINNER),1643,"EASTCOTE HIGH ROAD, HA5 2ET",51.5844665,-0.4077365
500,BP BURY STREET (BURY STREET SF CONNECT),1662,"BURY STREET, HA4 7TW",51.5879813,-0.4365482
501,ESSO STATION ROAD (MFG TEN PIN),1658,"STATION ROAD, HA2 6AE",51.5873004,-0.3601221
502,ESSO PRESTWICK ROAD (SOUTH OXHEY EXPRESS),1809,"PRESTWICK ROAD, WD19 6EG",51.6278312,-0.3866221
503,ESSO SANDY LANE (SANDY LODGE SERVICE STATION),1808,"SANDY LANE, HA6 2HU",51.631707,-0.415624
504,GULF RUISLIP (ICKENHAM SERVICE STATION),1640,"ICKENHAM ROAD, HA4 7DH",51.5712,-0.435057
505,SHELL PINNER ROAD (MFG HARROW),1655,"PINNER ROAD, HA1 4EU",51.5810317,-0.348048
506,ESSO HIGH STREET (MFG HIGH WEALD),1650,"HIGH STREET, HA3 5EA",51.599593,-0.337676
507,BP VICTORIA ROAD (MFG VICTORIA ROAD SPAR),633,"VICTORIA ROAD, HA4 0SA",51.5594208,-0.3974546
508,ESSO ALEXANDRA AVENUE (HARROW EXPRESS),584,"ALEXANDRA AVENUE, HA2 9DL",51.5645675,-0.3664444
509,ESSO RUISLIP (MFG EASTCOTE),630,"FIELD END ROAD, HA4 0QP",51.5604951,-0.3807731
510,BP HARROW (BESSBOROUGH SF CONNECT),1881,"BESSBOROUGH ROAD, HA1 3BS",51.5790863,-0.3418341
511,SHELL UXBRIDGE (SHELL ICKENHAM),1639,"HIGH ROAD, UB10 8LF",51.5667927,-0.4422457
512,SHELL NORTHOLT ROAD (SHELL WAITROSE SOUTH HARROW),17600,"NORTHOLT ROAD, HA2 0EG",51.5672933,-0.3504361
513,ESSO LONG LANE (MFG SWAKELEYS),1638,"LONG LANE, UB10 8TB",51.5643757,-0.4438024
514,BP WATFORD (HKS COLNE),1798,"WIGGENHALL ROAD, WD18 0FS",51.647715,-0.3943381
515,ESSO HIGH ROAD (BUSHEY HEATH EXPRESS),1804,"HIGH ROAD, WD23 1EL",51.6329803,-0.3400852
516,BP PETTS HILL (NORTHOLT PARK SF CONNECT),585,"PETTS HILL, UB5 4NP",51.55618,-0.36124
517,ESSO BELMONT CIRCLE (BELMONT SERVICE STATION),1884,"BELMONT CIRCLE, HA3 8SF",51.601146,-0.317364
518,TESCO WATFORD EXTRA,1799,"HIGH STREET, WD17 2BD",51.6517448,-0.3876114
519,SHELL WATFORD ROAD (SHELL CROXLEY GREEN),1666,"WATFORD ROAD, WD3 3ED",51.6500255,-0.43571
520,UNBRANDED GREENFORD (GREENFORD SERVICE STATION),1353,"GREENFORD ROAD, UB6 0EJ",51.5517492,-0.339496
521,UNBRANDED RICKMANSWORTH (RICKMANSWORTH SERVICE STATION),4697,"VICTORIA CLOSE, WD3 4EQ",51.6412078,-0.4739297
522,JET HARROW (KENTON PARK SERVICE STATION),111,"KENTON ROAD, HA3 9DP",51.5874233,-0.301801
523,ESSO RICKMANSWORTH (MFG RICKMANSWORTH SPAR),1681,"UXBRIDGE ROAD, WD3 7BG",51.6367872,-0.4827987
524,SHELL WATFORD ROAD (PARK HARROW SERVICE STATION),1340,"WATFORD ROAD, HA0 3HF",51.560829,-0.3194164
525,SHELL DENHAM (SHELL BUDGENS DENHAM),1683,"NORTH ORBITAL ROAD, UB9 5EY",51.5811862,-0.5003424
526,BP RICKMANSWORTH (MILL END SF CONNECT),1682,"UXBRIDGE ROAD, WD3 8DS",51.634331,-0.489086
527,ESSO STANMORE (STANMORE EXPRESS),106,"HONEYPOT LANE, HA7 1JN",51.596054,-0.294034
528,ESSO ST ALBANS ROAD (RSS WATFORD),1674,"ST ALBANS ROAD, WD24 4AE",51.6676851,-0.3977022
529,ESSO BOREHAMWOOD (ELSTREE HILL SERVICE STATION),116,"ELSTREE HILL SOUTH, WD6 3BL",51.6375107,-0.3042192
530,ESSO EDGWARE (EDGWARE EXPRESS),115,"STONEGROVE, HA8 8AF",51.62169000000001,-0.292065
531,MORRISONS QUEENSBURY,108,"CUMBERLAND ROAD, NW9 6RN",51.593319,-0.285771
532,ESSO OXFORD ROAD (MFG NEW DENHAM),288,"OXFORD ROAD, UB9 4DN",51.55441649999999,-0.4889013
533,ESSO EAST LANE (MFG WEMBLEY),1341,"EAST LANE, HA9 7PU",51.562615,-0.301297
534,ESSO OXFORD ROAD (WILLOWBANK SERVICE STATION),287,"OXFORD ROAD, UB9 4DA",51.55384,-0.489063
535,ESSO OXFORD ROAD (DENHAM SERVICE STATION),1686,"OXFORD ROAD, UB9 4DF",51.55384,-0.489063
536,BP DENHAM (FLYING RED HORSE SF CONNECT),1687,"OXFORD ROAD, UB9 4DG",51.5682652,-0.5047423
537,SHELL KENTON ROAD (MFG KENTON ROAD),110,"KENTON ROAD, HA3 9RY",51.58521200000001,-0.2846402
538,SHELL EDGWARE ROAD (SHELL PINE),101,"EDGWARE ROAD, NW9 0HS",51.596506,-0.2628590000000001
539,ASDA COLINDALE AUTOMAT,26054,"CAPITOL WAY, NW9 0EW",51.5935892,-0.2638335
540,UNBRANDED EDGWARE (DEANSBROOK GARAGE),104,"HALE LANE, HA8 9RZ",51.617162,-0.2609351
541,MURCO LONDON (WOODCHURCH SERVICE STATION),1728,"CHURCH LANE, NW9 8SL",51.5738982,-0.2618926
542,SHELL BARNET WAY (SHELL MILL HILL),120,"BARNET WAY, NW7 3ET",51.62220800000001,-0.2551483
543,BP PENTAVIA RETAIL PARK (WATFORD WAY SF CONNECT),122,"PENTAVIA RETAIL PARK, NW7 2ET",51.605526,-0.24035
544,SAINSBURYS HENDON,100,"HYDE ESTATE ROAD, NW9 6JX",51.583183,-0.2442964
545,ASDA WEMBLEY AUTOMAT,26018,"FORTY LANE, HA9 9EX",51.5647945,-0.2755593
546,M1 LONDON GATEWAY WELCOME BREAK MOTORWAY SERVICE AREA,1688,"M1 J3, NW7 3HB",52.083231,-0.7491774999999999
547,ESSO WATFORD WAY (OBSERVATORY SERVICE STATION),121,"WATFORD WAY, NW7 2PT",51.6155622,-0.2421171999999999
548,SHELL EMPIRE WAY (MFG WEMBLEY PARK),1345,"EMPIRE WAY, HA9 0RJ",51.5617212,-0.2821757
549,TEXACO THE BROADWAY (PARK WELSH HARP SERVICE STATION),99,"THE BROADWAY, NW9 7DN",51.5800485,-0.242893
550,BP BLACKBIRD HILL (BLACKBIRD HILL SF CONNECT),1727,"BLACKBIRD HILL, NW9 8SD",51.5649234,-0.2642196
551,ESSO WATFORD WAY (RSS HENDON WAY),1751,"WATFORD WAY, NW4 3AQ",51.5846566,-0.2298998
552,BP FINCHLEY LANE (FINCHLEY LANE SF CONNECT),1752,"FINCHLEY LANE, NW4 1DL",51.589346,-0.2203149
553,SHELL NORTH CIRCULAR ROAD (SHELL NEASDEN),1350,"NORTH CIRCULAR ROAD, NW10 0SH",51.557889,-0.253951
554,SHELL BARNET BYPASS (SHELL STIRLING CORNER),1794,"BARNET BYPASS, EN5 3JG",51.6432295,-0.253687
555,TESCO WEMBLEY EXTRA,1349,"GREAT CENTRAL WAY, NW10 0TL",51.5540113,-0.2552202
556,MORRISONS BOREHAMWOOD,26084,"STIRLING WAY, WD6 2BT",51.645352,-0.255404
557,ASDA ELSTREE ALLUM LANE PFS,1815,"ALLUM LANE, WD6 3LS",51.652845,-0.281593
558,ESSO EDGWARE ROAD (MFG VICTORIA),1689,"EDGWARE ROAD, NW2 6LH",51.56630029999999,-0.226535
559,TESCO BRENT CROSS HENDON WAY,1735,"TILLING ROAD, NW2 1LZ",51.5741621,-0.2146762
560,SHELL EDGWARE ROAD (HKS STAPLES CORNER),1690,"EDGWARE ROAD, NW2 6LD",51.565697,-0.225631
561,TEXACO NEASDEN LANE (NEASDEN LANE SERVICE STATION),1696,"NEASDEN LANE, NW10 2UE",51.53220049999999,-0.2386136
562,BP DOLLIS ROAD (KELLYS CORNER SF CONNECT),1753,"DOLLIS ROAD, NW7 1JX",51.6048181,-0.2064821
563,ESSO DUDDEN HILL LANE (DUDDEN HILL SERVICE STATION),1697,"DUDDEN HILL LANE, NW10 1DE",51.5535995,-0.2440234
564,TESCO BOREHAMWOOD EXTRA,1813,"SHENLEY ROAD, WD6 1JG",51.6572757,-0.2713496
565,ESSO EDGWARE ROAD (MFG CRICKLEWOOD),1691,"EDGWARE ROAD, NW2 6ND",51.56389009999999,-0.2227895
566,ESSO FINCHLEY ROAD (RSS GOLDERS GREEN),1744,"FINCHLEY ROAD, NW11 6AH",51.5887337,-0.1994857
567,BP NORTH CIRCULAR ROAD (BYRON SF CONNECT),1747,"NORTH CIRCULAR ROAD, N12 0AP",51.6008685,-0.1750689
568,TESCO COLNEY HATCH EXTRA,1754,"NORTH CIRCULAR ROAD, N12 0SH",51.6071902,-0.1547098
569,ESSO HIGH ROAD (MFG WHETSTONE),614,"HIGH ROAD, N20 0LH",51.6280977,-0.174247
570,ESSO ARCHWAY ROAD (MFG WELLINGTON),706,"ARCHWAY ROAD, N6 4HX",51.5811285,-0.1556344
571,SHELL COLNEY HATCH LANE (SHELL MUSWELL HILL),712,"COLNEY HATCH LANE, N10 1QB",51.59526469999999,-0.1453271
572,BP RUSSELL LANE (BARNET SERVICE STATION),616,"RUSSELL LANE, N20 0BB",51.629465,-0.158883
573,BP WATERFALL ROAD SOUTH (WATERFALL SF CONNECT),1761,"WATERFALL ROAD SOUTH, N11 1NH",51.6196675,-0.1463267
574,BP PINKHAM WAY (PINKHAM WAY SF CONNECT),1755,"PINKHAM WAY, N11 2UU",51.6106483,-0.1365961
575,GULF NORTH ROAD (JOHN NICHOL CARS),1739,"NORTH ROAD, N6 4BE",51.5727917,-0.1499695
576,BP GREAT NORTH ROAD (ODEON SF CONNECT),561,"GREAT NORTH ROAD, EN5 1EQ",37.7749295,-122.4194155
577,SHELL PARK ROAD (SHELL HORNSEY PARK ROAD),711,"PARK ROAD, N8 8JN",51.5826467,-0.1282196
578,UNBRANDED BOUNDS GREEN ROAD (BOUNDS GREEN SERVICE STATION),1756,"BOUNDS GREEN ROAD, N11 2QH",51.6057044,-0.1221075
579,ESSO EAST BARNET ROAD (NEW BARNET EXPRESS),559,"EAST BARNET ROAD, EN4 8QX",51.6462598,-0.1670343
580,BP HORNSEY RISE (MFG HORNSEY RISE SPAR),1470,"HORNSEY RISE, N19 3SH",51.57361,-0.12729
581,TEXACO TOTTENHAM LANE (CO-OP CROUCH END),1476,"TOTTENHAM LANE, N8 8SE",51.5823616,-0.1198877
582,BP HAVERSTOCK HILL (BELSIZE PARK SERVICE STATION),489,"HAVERSTOCK HILL, NW3 4QE",51.5515233,-0.1667771
583,SHELL EAST BARNET ROAD (MFG NEW BARNET),560,"EAST BARNET ROAD, EN4 8RN",51.6494542,-0.1702466
584,ESSO WOOD STREET (MFG WOOD STREET),1793,"WOOD STREET, EN5 4BX",51.6528184,-0.2095227
585,BP CHASE SIDE (MFG SOUTHGATE),1764,"CHASE SIDE, N14 5BU",51.63375,-0.13307
586,SHELL GREEN LANES (SHELL PALMERS GREEN),498,"GREEN LANES, N13 5UN",51.614563,-0.109381
587,ESSO LORDSHIP LANE (MFG LORDSHIP LANE),1482,"LORDSHIP LANE, N22 5LE",51.5994568,-0.1001446
588,TEXACO WHITE HART LANE (WHITE HART LANE SERVICE STATION),482,"WHITE HART LANE, N17 7RP",51.6052468,-0.09539109999999999
589,ASDA TOTTENHAM WHITE HART LANE PFS,481,"WHITE HART LANE, N17 7LY",51.606554,-0.091169
590,PACE NORTH CIRCULAR ROAD (FOREST PALMERS GREEN SERVICE STATION),8372,"NORTH CIRCULAR ROAD, N13 6BJ",51.61222,-0.1077802
591,SHELL THE ROUNDWAY (MFG TOTTENHAM),483,"THE ROUNDWAY, N17 7AB",51.59928799999999,-0.07679799999999999
592,UNBRANDED NORTH CIRCULAR ROAD (PALMERS GREEN SERVICE STATION),499,"NORTH CIRCULAR ROAD, N13 5JF",51.6149533,-0.1010426
593,SAINSBURYS HARRINGAY,1481,"WILLIAMSON ROAD, N4 1UJ",51.5772644,-0.0955495
594,BP FORE STREET (EDMONTON SERVICE STATION),488,"FORE STREET, N18 2SX",51.6102602,-0.06617039999999999
595,UNBRANDED STAPLETON HALL ROAD (STAPLETON SERVICE STATION),1475,"STAPLETON HALL ROAD, N4 3QF",51.57303779999999,-0.1127873
596,SHELL WILLOUGHBY LANE (MFG NORTHUMBERLAND PARK),486,"WILLOUGHBY LANE, N17 0QU",51.603013,-0.055018
597,TEXACO HIGH ROAD (STAMFORD HILL SERVICE STATION),1440,"HIGH ROAD, N15 6LS",51.575867,-0.0719588
598,ESSO GREEN LANES (MFG HIGHFIELDS),502,"GREEN LANES, N21 3RL",51.6296238,-0.0972281
599,JET CHURCH STREET (GRAND PRIX SERVICE STATION),505,"CHURCH STREET, N9 9HL",51.628711,-0.07491249999999999
600,ESSO GREEN LANES (WINCHMORE HILL EXPRESS),503,"GREEN LANES, N21 2SA",51.6332057,-0.09382639999999999
601,TESCO LEA VALLEY EXTRA,17903,"GLOVER DRIVE, N18 3HF",51.6095403,-0.0466469
602,TEXACO SEVEN SISTERS ROAD (FINSBURY PARK SERVICE STATION),1468,"SEVEN SISTERS ROAD, N4 2AP",51.5655314,-0.1027242
603,ESSO STAMFORD HILL (MFG STAMFORD HILL),1438,"STAMFORD HILL, N16 5SR",51.5662818,-0.0733728
604,TEXACO MONTAGU ROAD (MONTAGU ROAD SERVICE STATION),479,"MONTAGU ROAD, N9 0EU",51.6214272,-0.049476
605,JET BLACKHORSE LANE (MFG HIGHAMS LODGE),444,"BLACKHORSE LANE, E17 6AA",51.590894,-0.03986489999999999
606,JET HERTFORD ROAD (HERTFORD ROAD GARAGE),1787,"HERTFORD ROAD, N9 7HL",51.6287435,-0.0559586
607,ESSO HORNSEY ROAD (MFG HORNSEY ROAD),1469,"HORNSEY ROAD, N7 6RA",51.5616537,-0.1167954
608,SHELL UPPER CLAPTON ROAD (SHELL CLAPTON),1443,"UPPER CLAPTON ROAD, E5 9JZ",51.564244,-0.059092
609,BP NORTH CIRCULAR ROAD (RSS WALTHAMSTOW),1195,"NORTH CIRCULAR ROAD, E4 8GP",51.6077,-0.03018
610,TEXACO HALL LANE (NORTH WEALD SERVICE STATION),1196,"HALL LANE, E4 8GP",51.6105404,-0.0302735
611,BP HERTFORD ROAD (J1 SERVICE STATION),1786,"HERTFORD ROAD, N9 7ET",51.6351376,-0.0527948
612,BP FOREST ROAD (RAINBOW SERVICE STATION),447,"FOREST ROAD, E17 6JG",51.58945500000001,-0.027751
613,UNBRANDED LONDON ROAD (ENFIELD BUSH HILL SERVICE STATION),1773,"LONDON ROAD, EN2 6EU",51.6457033,-0.08125919999999999
614,BP STOKE NEWINGTON ROAD (MFG AMBASSADOR),1190,"STOKE NEWINGTON ROAD, N16 7XA",51.555445,-0.074201
615,ESSO GREAT CAMBRIDGE ROAD (MFG BUSH HILL),1774,"GREAT CAMBRIDGE ROAD, EN1 1JD",51.6422306,-0.061456
616,TEXACO MARKHOUSE ROAD (CO-OP WALTHAMSTOW),442,"MARKHOUSE ROAD, E17 8BQ",51.5758953,-0.03001889999999999
617,MORRISONS CHINGFORD,13195,"SALISBURY HALL GARDENS, E4 8SA",51.60707499999999,-0.019924
618,SAINSBURYS LOW HALL,1636,"WALTHAMSTOW AVENUE, E4 8ST",51.60334270000001,-0.0177181
619,ESSO BRAMLEY ROAD (OAKWOOD EXPRESS),1790,"BRAMLEY ROAD, N14 4XA",51.6480712,-0.1301447
620,GULF CHINGFORD MOUNT ROAD (CHINGFORD SERVICE STATION),1634,"CHINGFORD MOUNT ROAD, E4 8LU",51.6107425,-0.0181091
621,GULF ENFIELD (BOUNDARY SERVICE STATION),1785,"HIGH STREET, EN3 4EJ",51.6405967,-0.04722130000000001
622,GULF WOODFORD NEW ROAD (WOODFORD SERVICE STATION),281,"WOODFORD NEW ROAD, E18 2QD",51.6000783,0.0136548
623,GULF WOODFORD NEW ROAD (OAKHILL SERVICE STATION),282,"WOODFORD NEW ROAD, E18 2QD",51.6003367,0.0133449
624,SHELL LARKSHALL ROAD (SHELL LARKSHALL ROAD),1633,"LARKSHALL ROAD, E4 9HH",51.608998,-0.001241
625,TEXACO FOREST ROAD (CO-OP FOREST ROAD WALTHAMSTOW),450,"FOREST ROAD, E17 4JD",51.5915419,-0.007044499999999999
626,ESSO HATCH LANE (MFG CHINGFORD),1632,"HATCH LANE, E4 6LP",51.6186113,0.007110900000000001
627,ESSO LEA BRIDGE ROAD (LEYTON EXPRESS),434,"LEA BRIDGE ROAD, E17 9DZ",51.578683,-0.006849999999999999
628,ESSO HOE STREET (WALTHAMSTOW EXPRESS),445,"HOE STREET, E17 9AA",51.578318,-0.0177804
629,JET WOODFORD GREEN (CLARKS GARAGE LTD),278,"CHIGWELL ROAD, IG8 8PN",51.5990853,0.0401481
630,BP WOODFORD GREEN (SNAKES LANE SERVICE STATION),1631,"SNAKES LANE EAST, IG8 7JD",51.6069727,0.041755
631,SHELL WOODFORD GREEN (SHELL WOODFORD),285,"SOUTHEND ROAD, IG8 8QH",51.59257700000001,0.0429053
632,ESSO WOODFORD GREEN (MFG WOODFORD BRIDGE),279,"CHIGWELL ROAD, IG8 8PE",51.601912,0.045302
633,JET HOLLYBUSH HILL (GREENMAN SERVICE STATION),1850,"HOLLYBUSH HILL, E11 1PP",51.573257,0.0167768
634,BP HIGH ROAD (MFG LEYTON),435,"HIGH ROAD, E10 6JP",51.5706283,-0.0079946
635,SHELL BUCKHURST HILL (SHELL BUCKHURST HILL),1622,"HIGH ROAD, IG9 5HP",51.624568,0.0309303
636,JET LEYTON HIGH ROAD (MFG LEYCO),1505,"LEYTON HIGH ROAD, E10 6QA",51.5649828,-0.0105817
637,SHELL SEWARDSTONE ROAD (SHELL CHING),1197,"SEWARDSTONE ROAD, E4 7PU",51.6359597,-0.0134326
638,ESSO LEA BRIDGE ROAD (RSS ORIENT),437,"LEA BRIDGE ROAD, E10 7PN",51.568091,-0.0318709
639,ESSO EASTERN AVENUE (MFG REDBRIDGE),1600,"EASTERN AVENUE, IG4 5AH",51.5758202,0.04677829999999999
640,ESSO BUCKHURST HILL (RSS EPPING),1624,"EPPING NEW ROAD, IG9 5UA",51.63423390000001,0.0317852
641,JET HIGH ROAD LEYTONSTONE (LEYTONSTONE SERVICES),1500,"HIGH ROAD LEYTONSTONE, E11 4PG",51.55999,0.007389600000000001
642,UNBRANDED ILFORD (BEEHIVE FILLING STATION),1598,"BEEHIVE LANE, IG4 5EE",51.5806693,0.05884669999999999
643,ESSO ALDERSBROOK ROAD (ALDERSBROOK SERVICE STATION),1510,"ALDERSBROOK ROAD, E12 5HH",51.5624563,0.0337288
644,ASDA LEYTON AUTOMAT,25188,"MARSHALL ROAD, E10 5NH",51.5551409,-0.0114433
645,SHELL CHIGWELL (SHELL CHIGWELL),1607,"MANOR ROAD, IG7 5PP",51.610713,0.081442
646,BP MOLLISON AVENUE (HIGHWAY SF CONNECT),1784,"MOLLISON AVENUE, EN3 7NJ",51.6482748,-0.0294882
647,TESCO BARKINGSIDE,15786,"CRANBROOK ROAD, IG6 1HY",51.5860767,0.08003819999999999
648,JET NEW NORTH ROAD (NEW NORTH ROAD SERVICE STATION),1605,"NEW NORTH ROAD, IG6 3AD",51.604487,0.09553009999999999
649,BP EASTERN AVENUE (GREENGATE SF CONNECT),1619,"EASTERN AVENUE, IG2 7RH",51.5741148,0.08520169999999999
650,BP EASTERN AVENUE (NEWBURY CENTRE SERVICE STATION),1618,"EASTERN AVENUE, IG2 7HU",51.5741148,0.08520169999999999
651,ESSO COLLIER ROW ROAD (MFG COLLIER ROW),1613,"COLLIER ROW ROAD, RM5 2BD",51.598104,0.155332
652,TESCO ROMFORD GOODMAYES EXTRA,1591,"HIGH ROAD, RM6 4HY",51.56638599999999,0.1119634
653,ESSO HIGH ROAD (MFG GOODMAYES),1852,"HIGH ROAD, IG3 8RU",51.5649905,0.1027345
654,SHELL LEY STREET (MFG ILFORD),320,"LEY STREET, IG1 4BS",51.5636383,0.08247249999999999
655,JET GREEN LANE (MAYFIELD SELF SERVICE STATION),1567,"GREEN LANE, IG3 9RY",51.562791,0.1155995
656,JET ROMFORD (MFG CHADWELL HEATH),277,"HIGH ROAD, RM6 6AU",51.57286269999999,0.1450259
657,TEXACO BECONTREE AVENUE (CO-OP DAGENHAM),273,"BECONTREE AVENUE, RM8 2UU",51.55828,0.1286103
658,BP LOUGHTON (CHIGWELL SF CONNECT),1620,"THE BROADWAY, IG10 3ST",51.64671,0.08175
659,TEXACO ROMFORD (ROMFORD SERVICE STATION),467,"EASTERN AVENUE, RM1 4SD",51.58873999999999,0.1754696
660,SHELL LONDON ROAD (SHELL ABRIDGE SERVICE STATION),1609,"LONDON ROAD, RM4 1XL",51.64894349999999,0.1128631
661,SHELL EASTERN AVENUE EAST (SHELL RISE PARK),468,"EASTERN AVENUE EAST, RM1 4SJ",51.59127179999999,0.1790432
662,SAINSBURYS ROMFORD,25037,"WATERLOO ROAD, RM1 1AU",51.5761935,0.1780768
663,ESSO MAIN ROAD (ROMFORD EXPRESS),471,"MAIN ROAD, RM1 3BT",51.582016,0.1868641
664,ESSO LOUGHTON (RSS CHURCH HILL),1621,"CHURCH HILL, IG10 1QR",51.6548749,0.0657785
665,ESSO ROMFORD ROAD (FOREST GATE EXPRESS),1511,"ROMFORD ROAD, E7 8AF",51.54899080000001,0.04328
666,SHELL BRENTWOOD ROAD (MFG ROMFORD SHELL),477,"BRENTWOOD ROAD, RM1 2SL",51.57379,0.1960216
667,ESSO FARINGDON AVENUE (MFG FARINGDON),1595,"FARINGDON AVENUE, RM3 0AB",51.5972374,0.2169382
668,TESCO ROMFORD GALLOWS CORNER EXTRA,17911,"BRYANT AVENUE, RM3 0LL",51.5922692,0.2201062
669,BP SOUTHEND ARTERIAL ROAD (RSS HORNCHURCH),1584,"SOUTHEND ARTERIAL ROAD, RM11 2SE",51.5807965,0.2360275999999999
670,ESSO COLCHESTER ROAD (MFG HAROLD PARK),1593,"COLCHESTER ROAD, RM3 0AG",51.6038246,0.2483661
671,BP SOUTHEND ARTERIAL ROAD (HORNCHURCH SF CONNECT),25193,"SOUTHEND ARTERIAL ROAD, RM11 3UJ",51.5799007,0.24001
672,SHELL BROOK STREET (SHELL SOUTH WEALD),938,"BROOK STREET, CM14 5LU",51.6090425,0.2649363
673,ESSO LONDON ROAD (BRENTWOOD EXPRESS),936,"LONDON ROAD, CM14 4QG",51.616967,0.2910772
674,SHELL WARLEY HILL (SHELL BRENTWOOD),939,"WARLEY HILL, CM14 5HE",51.607247,0.297746
675,BP ONGAR ROAD (ONGAR ROAD SF CONNECT),935,"ONGAR ROAD, CM15 9HZ",51.6321285,0.2885962
676,ESSO SOUTHEND ARTERIAL ROAD (MFG WARLEY),2192,"SOUTHEND ARTERIAL ROAD, CM13 3ES",51.5751767,0.3127818
677,ESSO SOUTHEND ARTERIAL ROAD (BASILDON SERVICE STATION),17553,"SOUTHEND ARTERIAL ROAD, CM13 3EN",51.592054,0.4791922
678,PACE BRENTWOOD (BURGOYNE MOTORS),18318,"BLACKMORE ROAD, CM15 0BJ",51.6648423,0.2801549
679,ESSO NORTH ORBITAL ROAD (SHEEPCOT SERVICE STATION),1680,"NORTH ORBITAL ROAD, WD25 7LW",51.692045,-0.398393
680,SHELL WATFORD (SHELL WAITROSE SCEPTRE),1669,"ST ALBANS ROAD, WD24 7RU",51.6810724,-0.3944255
681,SAINSBURYS DOME ROUNDABOUT,12515,"NORTH WESTERN AVENUE, WD25 9JS",51.6813017,-0.3881029
682,ASDA WATFORD,1671,"ST ALBANS ROAD, WD24 7RT",51.679947,-0.3902891
683,UNBRANDED ST ALBANS (CLASSIC SERVICE STATION),1678,"OLD WATFORD ROAD, AL2 3RS",51.7125475,-0.3737893
684,SHELL KINGS LANGLEY (SHELL HUNTON BRIDGE),1676,"WATFORD ROAD, WD4 8RD",51.6875773,-0.4327345
685,TEXACO KINGS LANGLEY (MFG PRIMROSE HILL),3348,"PRIMROSE HILL, WD4 8HR",51.7141615,-0.4413385
686,SHELL WATFORD ROAD (SHELL CHISWELL),3436,"WATFORD ROAD, AL2 3EH",51.7210625,-0.3637476
687,TEXACO HEMPSTEAD ROAD (PARK KINGS LANGLEY SERVICE STATION),8143,"HEMPSTEAD ROAD, WD4 8AL",51.725871,-0.4531214999999999
688,GULF ST ALBANS (RADLETT ROAD SERVICE STATION),7297,"RADLETT ROAD, AL2 2JX",51.713958,-0.333526
689,BP WATLING STREET (MOUNT SF CONNECT),4771,"WATLING STREET, AL2 2NN",51.7306116,-0.3424161
690,ESSO RADLETT (RSS RADLETT),1811,"WATLING STREET, WD7 7AG",51.686446,-0.318586
691,SAINSBURYS APSLEY MILL,8959,"LONDON ROAD, HP3 9QZ",51.7352977,-0.4641967
692,SHELL LONDON ROAD (MFG APSLEY),3920,"LONDON ROAD, HP3 9SP",51.7364622,-0.4672278999999999
693,SAINSBURYS ST ALBANS,8738,"EVERARD CLOSE, AL1 2QU",51.7427441,-0.3399312
694,UNBRANDED CHORLEY WOOD (BIGGERSTAFF'S GARAGE),17999,"DIMMOCKS LANE, WD3 6AR",51.6821435,-0.4894957
695,BP HEMEL HEMPSTEAD (BREAKSPEAR WAY SF CONNECT),5191,"BREAKSPEAR WAY, HP2 4TZ",51.75579,-0.42738
696,SHELL BREAKSPEAR WAY (SHELL HEMEL HEMPSTEAD),3915,"BREAKSPEAR WAY, HP2 4TZ",51.7563707,-0.4283684
697,TESCO HEMEL HEMPSTEAD,8958,"JARMAN WAY, HP2 4JS",51.7493975,-0.4562668
698,ESSO LONDON ROAD (ST ALBANS SERVICE STATION),1932,"LONDON ROAD, AL1 1LP",51.4406815,-0.0593899
699,BP VERULAM ROAD (ST ALBANS SF CONNECT),6848,"VERULAM ROAD, AL3 4DP",51.75627069999999,-0.3485462
700,ESSO HEMEL HEMPSTEAD (MFG EVEREST WAY),4677,"ADEYFIELD ROAD, HP2 4HZ",51.7567019,-0.4514121
701,TEXACO LONDON ROAD (FOREST HEMEL SERVICE STATION),7682,"LONDON ROAD, HP3 9BE",51.7430012,-0.4879795
702,SHELL QUEENSWAY (QUEENSWAY SERVICE STATION),5872,"QUEENSWAY, HP2 5HD",51.7582049,-0.4679221
703,MORRISONS ST ALBANS,12608,"HATFIELD ROAD, AL1 4SU",51.751621,-0.31254
704,SHELL RICKMANSWORTH ROAD (SHELL CHORLEYWOOD),4698,"RICKMANSWORTH ROAD, WD3 5SE",51.6575364,-0.5004027999999999
705,SAINSBURYS LONDON COLNEY,8739,"BARNET ROAD, AL2 1AB",51.7162628,-0.2869418
706,CO-OP CUPID GREEN,656,"REDBOURN ROAD, HP2 7BA",51.7722911,-0.4439785
707,SHELL WARNERS END ROAD (DACORUM SERVICE STATION),6996,"WARNERS END ROAD, HP1 3QF",51.7560698,-0.4918783
708,SHELL BEECH ROAD (MFG KING WILLIAM),6849,"BEECH ROAD, AL3 5AS",51.7669315,-0.3227669
709,TEXACO ST ALBANS (ST ALBANS SERVICE STATION),7298,"HARPENDEN ROAD, AL3 6BZ",51.7738893,-0.3358378
710,GULF HEMEL HEMPSTEAD (M AND M BOURNE END SERVICES),7679,"LONDON ROAD, HP1 2RQ",51.7457755,-0.5143097999999999
711,SHELL NORTH ORBITAL ROAD (SHELL ORBITAL),11661,"NORTH ORBITAL ROAD, AL4 0NG",51.73764610000001,-0.2784538
712,SAINSBURYS MARSHALSWICK,3435,"MARSHALSWICK LANE, AL1 4UZ",51.7631096,-0.3073879
713,SHELL A41 SERVICE AREA (SHELL BOURNE END),5357,"A41 SERVICE AREA, HP1 2SB",51.74154530000001,-0.5312118
714,SHELL ST ALBANS ROAD (SHELL REDBOURN),3437,"ST ALBANS ROAD, AL3 7AD",51.7928981,-0.3912064
715,SHELL BOREHAMWOOD (SHELL ELSTREE WAY),1817,"ELSTREE WAY, WD6 1LB",51.6596394,-0.2645715
716,M25 SOUTH MIMMS SF CONNECT MOTORWAY SERVICE AREA,5079,"M25 J23, EN6 3QQ",51.6874524,-0.2216823
717,BP BOREHAMWOOD (CLARENDON SF CONNECT),1816,"ELSTREE WAY, WD6 1SD",51.65845150000001,-0.2527378
718,SHELL HATFIELD ROAD (SHELL SMALLFORD),3439,"HATFIELD ROAD, AL4 0HP",51.7551166,-0.2680875
719,GULF HATFIELD (BISHOPS RISE SERVICE STATION),6633,"BISHOPS RISE, AL10 9BY",51.74946,-0.234083
720,TESCO POTTERS BAR,25080,"MUTTON LANE, EN6 2PB",51.6928682,-0.1805394
721,BP HIGH STREET (POTTERS BAR SF CONNECT),921,"HIGH STREET, EN6 5AB",51.69389,-0.17817
722,MURCO POTTERS BAR (MFG POTTERS BAR),918,"BARNET ROAD, EN6 2QU",51.6905271,-0.1786069
723,ASDA HATFIELD AUTOMAT,25563,"QUEENSWAY, AL10 0JP",51.76282,-0.2281101
724,ESSO HATFIELD (MFG BELL BAR),7300,"GREAT NORTH ROAD, AL9 6DB",51.7337591,-0.1877999
725,TESCO HATFIELD EXTRA,8741,"COMET WAY, AL9 5JY",51.7771717,-0.2222498
726,TEXACO BARNET (COCKFOSTERS SERVICE STATION),556,"COCKFOSTERS ROAD, EN4 0JY",51.65725699999999,-0.1535344
727,BP COCKFOSTERS ROAD (COCKFOSTERS SF CONNECT),557,"COCKFOSTERS ROAD, EN4 0DZ",51.652331,-0.150085
728,SHELL THE RIDGEWAY (LAVENDER HILL GARAGE),1768,"THE RIDGEWAY, EN2 8JF",51.663013,-0.103999
729,UNBRANDED CHESHUNT (ELLIOTT MOTOR COMPANY),991,"CUFFLEY HILL, EN7 5EU",51.709836,-0.0240576
730,UNBRANDED CHASE SIDE (CHASESIDE SERVICE STATION),1770,"CHASE SIDE, EN2 0QN",51.6606653,-0.0872559
731,ESSO LANCASTER ROAD (RSS ENFIELD),1771,"LANCASTER ROAD, EN2 0BU",51.6640241,-0.080334
732,SHELL WELWYN GARDEN CITY (SHELL BUDGENS WELWYN GARDEN CITY),8592,"STANBOROUGH ROAD, AL8 6XA",51.7931706,-0.2108202
733,SHELL WALTHAM CROSS (MFG CHESHUNT),989,"FLAMSTEAD END ROAD, EN8 0JA",51.711763,-0.05040799999999999
734,SHELL BULLSMOOR LANE (SHELL BULLSMOOR LANE),917,"BULLSMOOR LANE, EN1 4SB",51.6804488,-0.0486032
735,BP BULLSMOOR LANE (RSS BULLSMOOR LANE),916,"BULLSMOOR LANE, EN1 4SE",51.67991,-0.04831999999999999
736,BP WALTHAM CROSS (KILSMORE WAY SF CONNECT),995,"GREAT CAMBRIDGE ROAD, EN8 0NF",51.7099791,-0.0403377
737,TEXACO WALTHAM CROSS (CHESHUNT SERVICE STATION),993,"TURNERS HILL, EN8 9BN",51.7039903,-0.034095
738,TESCO CHESHUNT EXTRA,992,"BROOKFIELD CENTRE, EN8 0TA",51.7179925,-0.0373539
739,ESSO WALTHAM CROSS (WALTHAM CROSS EXPRESS),915,"BULLSMOOR LANE, EN8 7RS",51.680359,-0.034434
740,SHELL GREAT CAMBRIDGE ROAD (SHELL ENFIELD),1777,"GREAT CAMBRIDGE ROAD, EN1 4JR",51.66362700000001,-0.0568554
741,JET ENFIELD (EMPIRE SERVICE STATION),1781,"HERTFORD ROAD, EN3 5SS",51.6671737,-0.0426062
742,ESSO HERTFORD ROAD (ENFIELD EXPRESS),1780,"HERTFORD ROAD, EN3 5UT",51.6657188,-0.0432318
743,JET WALTHAM CROSS (WALTHAM CROSS AUTOPOINT),912,"ELEANOR CROSS ROAD, EN8 7NJ",51.6858717,-0.0213282
744,SAINSBURYS ENFIELD,1776,"CROWN ROAD, EN1 1TH",51.6519492,-0.0574839
745,TOTAL HODDESDON (TOTAL BROXBOURNE),988,"HIGH ROAD, EN10 6DU",51.7302663,-0.025099
746,MORRISONS ENFIELD,1775,"SOUTHBURY ROAD, EN1 1TW",51.6474686,-0.0568
747,TESCO PONDERS END EXTRA,25209,"HIGH STREET, EN3 4DP",51.6479503,-0.0476307
748,SHELL HODDESDON (SHELL WAITROSE BROXBOURNE),987,"HIGH ROAD, EN10 6PY",51.7381495,-0.0220675
749,BP WALTHAM ABBEY (ABBEY SERVICE STATION),5080,"FARM HILL ROAD, EN9 1NN",51.68591,0.0018
750,TESCO WALTHAM ABBEY,25517,"SEWARDSTONE ROAD, EN9 1JH",51.68422229999999,0.0021203
751,TEXACO WALTHAM ABBEY (MARSHFIELD SERVICE STATION),1199,"SEWARDSTONE ROAD, E4 7RF",51.6583941,-0.0052204
752,UNBRANDED HODDESDON (HODDESDON SERVICE STATION),931,"HIGH STREET, EN11 8SX",51.7580682,-0.0127398
753,SAINSBURYS HODDESDON,25036,"BREWERY ROAD, EN11 8HF",51.7605601,-0.008182199999999999
754,SHELL EPPING ROAD (SHELL EPPING),1625,"EPPING ROAD, CM16 5HW",51.6757291,0.0631711
755,UNBRANDED EPPING GREEN ROAD (JACK'S HATCH GARAGE),13479,"EPPING GREEN ROAD, CM16 6QA",51.7401478,0.07438009999999999
756,SHELL HIGH STREET (SHELL HALFMOON),8247,"HIGH STREET, CM16 4AE",51.6958713,0.1066758
757,BP HODDESDON (WARE ROAD SF CONNECT),933,"WARE ROAD, EN11 9DU",51.7667949,-0.0118097
758,BP SOUTHERN WAY (HARLOW SF CONNECT),4966,"SOUTHERN WAY, CM18 7BH",51.7532,0.08829999999999999
759,TEXACO HARLOW (HARLOW SERVICE STATION),8616,"ELIZABETH WAY, CM19 5AR",51.7671608,0.0671832
760,GULF HODDESDON (HAILEY SERVICE STATION),9847,"WARE ROAD, SG13 7PE",51.780164,-0.013804
761,UNBRANDED HIGH ROAD (EPPING HIGH ROAD SERVICE STATION),13477,"HIGH ROAD, CM16 6LZ",51.7303529,0.1233972
762,UNBRANDED HIGH ROAD (EPPING SERVICE STATION),7605,"HIGH ROAD, CM16 6LZ",51.7303529,0.1233972
763,JET EPPING (BASSETT FILLING STATION),18316,"HIGH ROAD, CM16 6ED",0.0,0.0
764,SHELL HARLOW (SHELL HARLOW),3643,"POTTER STREET BYPASS, CM17 9AD",51.749591,0.134583
765,BP POTTER STREET BYPASS (HARLOW GATE SF CONNECT),4965,"POTTER STREET BYPASS, CM17 9AG",51.74979940000001,0.1346855
766,ESSO TILLWICKS ROAD (RSS HARLOW),2195,"TILLWICKS ROAD, CM18 6NQ",51.7585457,0.1148854
767,TESCO HARLOW CHURCH LANGLEY,8836,"CHURCH LANGLEY WAY, CM17 9TE",51.7665179,0.1307699
768,ESSO FOURTH AVENUE (MFG LINKWAY),6918,"FOURTH AVENUE, CM20 9HH",51.771172,0.090932
769,SAINSBURYS HARLOW,8840,"FIFTH AVENUE, CM20 2AG",51.7746608,0.0949134
770,BP EDINBURGH WAY (RSS EDINBURGH WAY),6919,"EDINBURGH WAY, CM20 2DG",51.785711,0.117574
771,TESCO HARLOW EDINBURGH WAY,8841,"EDINBURGH WAY, CM20 2TG",51.7856162,0.125239
772,ESSO CHIPPING ONGAR (ONGAR EXPRESS),12456,"HIGH STREET, CM5 9AL",51.7069501,0.2447163
773,BP CHIPPING ONGAR (MFG FOUR WANTZ),6158,"WANTZ ROUNDABOUT, CM5 0AH",51.7129932,0.2451619
774,UNBRANDED ONGAR (NORTON HEATH SERVICE STATION),8248,"CHELMSFORD ROAD, CM4 0LQ",51.7105964,0.3108723
775,UNBRANDED BLACKMORE (WAKELINS GARAGE),25425,"INGATESTONE ROAD, CM4 0RS",51.6914901,0.3210998
776,BP CHELMSFORD ROAD (BRENTWOOD SF CONNECT),6155,"CHELMSFORD ROAD, CM15 8SD",51.645339,0.344754
777,BP RAYLEIGH ROAD (HUTTON MOUNT SF CONNECT),2191,"RAYLEIGH ROAD, CM13 1AB",51.631193,0.331684
